[{"GameKey":"201610110","SeasonType":1,"Season":2016,"Week":1,"Date":"2016-09-08T20:30:00","AwayTeam":"CAR","HomeTeam":"DEN","Channel":null,"PointSpread":3.0,"OverUnder":40.5,"StadiumID":13,"Canceled":false,"GeoLat":39.743936,"GeoLong":-105.020097,"ForecastTempLow":56,"ForecastTempHigh":89,"ForecastDescription":"Sunny","ForecastWindChill":82,"ForecastWindSpeed":4,"AwayTeamMoneyLine":-155,"HomeTeamMoneyLine":135,"StadiumDetails":{"StadiumID":13,"Name":"Sports Authority Field at Mile High","City":"Denver","State":"CO","Country":"USA","Capacity":76125,"PlayingSurface":"Grass","GeoLat":39.743936,"GeoLong":-105.020097}},{"GameKey":"201610115","SeasonType":1,"Season":2016,"Week":1,"Date":"2016-09-11T13:00:00","AwayTeam":"GB","HomeTeam":"JAX","Channel":null,"PointSpread":3.5,"OverUnder":47.0,"StadiumID":10,"Canceled":false,"GeoLat":30.323813,"GeoLong":-81.637199,"ForecastTempLow":74,"ForecastTempHigh":92,"ForecastDescription":"Partly Cloudy","ForecastWindChill":73,"ForecastWindSpeed":7,"AwayTeamMoneyLine":-200,"HomeTeamMoneyLine":160,"StadiumDetails":{"StadiumID":10,"Name":"EverBank Field","City":"Jacksonville","State":"FL","Country":"USA","Capacity":67246,"PlayingSurface":"Artificial","GeoLat":30.323813,"GeoLong":-81.637199}},{"GameKey":"201610103","SeasonType":1,"Season":2016,"Week":1,"Date":"2016-09-11T13:00:00","AwayTeam":"BUF","HomeTeam":"BAL","Channel":null,"PointSpread":-3.0,"OverUnder":44.5,"StadiumID":7,"Canceled":false,"GeoLat":39.277985,"GeoLong":-76.622788,"ForecastTempLow":65,"ForecastTempHigh":81,"ForecastDescription":"Mostly Sunny","ForecastWindChill":77,"ForecastWindSpeed":14,"AwayTeamMoneyLine":130,"HomeTeamMoneyLine":-150,"StadiumDetails":{"StadiumID":7,"Name":"M&T Bank Stadium","City":"Baltimore","State":"MD","Country":"USA","Capacity":71008,"PlayingSurface":"Artificial","GeoLat":39.277985,"GeoLong":-76.622788}},{"GameKey":"201610113","SeasonType":1,"Season":2016,"Week":1,"Date":"2016-09-11T13:00:00","AwayTeam":"CHI","HomeTeam":"HOU","Channel":null,"PointSpread":-6.0,"OverUnder":42.5,"StadiumID":11,"Canceled":false,"GeoLat":29.684543,"GeoLong":-95.410932,"ForecastTempLow":74,"ForecastTempHigh":87,"ForecastDescription":"Thunderstorms","ForecastWindChill":73,"ForecastWindSpeed":11,"AwayTeamMoneyLine":220,"HomeTeamMoneyLine":-270,"StadiumDetails":{"StadiumID":11,"Name":"Reliant Stadium","City":"Houston","State":"TX","Country":"USA","Capacity":71054,"PlayingSurface":"Dome","GeoLat":29.684543,"GeoLong":-95.410932}},{"GameKey":"201610126","SeasonType":1,"Season":2016,"Week":1,"Date":"2016-09-11T13:00:00","AwayTeam":"CLE","HomeTeam":"PHI","Channel":null,"PointSpread":-4.0,"OverUnder":41.5,"StadiumID":18,"Canceled":false,"GeoLat":39.900771,"GeoLong":-75.167469,"ForecastTempLow":71,"ForecastTempHigh":86,"ForecastDescription":"Thunderstorms","ForecastWindChill":79,"ForecastWindSpeed":18,"AwayTeamMoneyLine":163,"HomeTeamMoneyLine":-200,"StadiumDetails":{"StadiumID":18,"Name":"Lincoln Financial Field","City":"Philadelphia","State":"PA","Country":"USA","Capacity":68532,"PlayingSurface":"Grass","GeoLat":39.900771,"GeoLong":-75.167469}},{"GameKey":"201610102","SeasonType":1,"Season":2016,"Week":1,"Date":"2016-09-11T13:00:00","AwayTeam":"TB","HomeTeam":"ATL","Channel":null,"PointSpread":-2.5,"OverUnder":46.5,"StadiumID":25,"Canceled":false,"GeoLat":33.757614,"GeoLong":-84.400972,"ForecastTempLow":72,"ForecastTempHigh":89,"ForecastDescription":"Thunderstorms","ForecastWindChill":73,"ForecastWindSpeed":11,"AwayTeamMoneyLine":115,"HomeTeamMoneyLine":-135,"StadiumDetails":{"StadiumID":25,"Name":"Georgia Dome","City":"Atlanta","State":"GA","Country":"USA","Capacity":74228,"PlayingSurface":"Dome","GeoLat":33.757614,"GeoLong":-84.400972}},{"GameKey":"201610134","SeasonType":1,"Season":2016,"Week":1,"Date":"2016-09-11T13:00:00","AwayTeam":"MIN","HomeTeam":"TEN","Channel":null,"PointSpread":2.5,"OverUnder":40.5,"StadiumID":12,"Canceled":false,"GeoLat":36.166441,"GeoLong":-86.771253,"ForecastTempLow":62,"ForecastTempHigh":82,"ForecastDescription":"Mostly Sunny","ForecastWindChill":63,"ForecastWindSpeed":7,"AwayTeamMoneyLine":-145,"HomeTeamMoneyLine":125,"StadiumDetails":{"StadiumID":12,"Name":"LP Field","City":"Nashville","State":"TN","Country":"USA","Capacity":6914,"PlayingSurface":"Grass","GeoLat":36.166441,"GeoLong":-86.771253}},{"GameKey":"201610124","SeasonType":1,"Season":2016,"Week":1,"Date":"2016-09-11T13:00:00","AwayTeam":"CIN","HomeTeam":"NYJ","Channel":null,"PointSpread":1.0,"OverUnder":42.0,"StadiumID":3,"Canceled":false,"GeoLat":40.813611,"GeoLong":-74.074444,"ForecastTempLow":70,"ForecastTempHigh":83,"ForecastDescription":"Thunderstorms","ForecastWindChill":79,"ForecastWindSpeed":14,"AwayTeamMoneyLine":-115,"HomeTeamMoneyLine":-105,"StadiumDetails":{"StadiumID":3,"Name":"MetLife Stadium","City":"East Rutherford","State":"NJ","Country":"USA","Capacity":82500,"PlayingSurface":"Artificial","GeoLat":40.813611,"GeoLong":-74.074444}},{"GameKey":"201610122","SeasonType":1,"Season":2016,"Week":1,"Date":"2016-09-11T13:00:00","AwayTeam":"OAK","HomeTeam":"NO","Channel":null,"PointSpread":-3.0,"OverUnder":50.5,"StadiumID":27,"Canceled":false,"GeoLat":29.950931,"GeoLong":-90.081364,"ForecastTempLow":78,"ForecastTempHigh":88,"ForecastDescription":"Thunderstorms","ForecastWindChill":77,"ForecastWindSpeed":7,"AwayTeamMoneyLine":130,"HomeTeamMoneyLine":-150,"StadiumDetails":{"StadiumID":27,"Name":"Mercedes-Benz Superdome","City":"New Orleans","State":"LA","Country":"USA","Capacity":73208,"PlayingSurface":"Dome","GeoLat":29.950931,"GeoLong":-90.081364}},{"GameKey":"201610116","SeasonType":1,"Season":2016,"Week":1,"Date":"2016-09-11T13:00:00","AwayTeam":"SD","HomeTeam":"KC","Channel":null,"PointSpread":-6.5,"OverUnder":45.5,"StadiumID":15,"Canceled":false,"GeoLat":39.049002,"GeoLong":-94.483864,"ForecastTempLow":57,"ForecastTempHigh":77,"ForecastDescription":"Sunny","ForecastWindChill":61,"ForecastWindSpeed":7,"AwayTeamMoneyLine":250,"HomeTeamMoneyLine":-300,"StadiumDetails":{"StadiumID":15,"Name":"Arrowhead Stadium","City":"Kansas City","State":"MO","Country":"USA","Capacity":76416,"PlayingSurface":"Grass","GeoLat":39.049002,"GeoLong":-94.483864}},{"GameKey":"201610130","SeasonType":1,"Season":2016,"Week":1,"Date":"2016-09-11T16:05:00","AwayTeam":"MIA","HomeTeam":"SEA","Channel":null,"PointSpread":-10.5,"OverUnder":44.0,"StadiumID":31,"Canceled":false,"GeoLat":47.595153,"GeoLong":-122.331625,"ForecastTempLow":57,"ForecastTempHigh":66,"ForecastDescription":"Partly Cloudy","ForecastWindChill":59,"ForecastWindSpeed":11,"AwayTeamMoneyLine":375,"HomeTeamMoneyLine":-500,"StadiumDetails":{"StadiumID":31,"Name":"CenturyLink Field","City":"Seattle","State":"WA","Country":"USA","Capacity":67000,"PlayingSurface":"Artificial","GeoLat":47.595153,"GeoLong":-122.331625}},{"GameKey":"201610114","SeasonType":1,"Season":2016,"Week":1,"Date":"2016-09-11T16:25:00","AwayTeam":"DET","HomeTeam":"IND","Channel":null,"PointSpread":-2.5,"OverUnder":51.0,"StadiumID":9,"Canceled":false,"GeoLat":39.760056,"GeoLong":-86.163806,"ForecastTempLow":58,"ForecastTempHigh":74,"ForecastDescription":"Sunny","ForecastWindChill":57,"ForecastWindSpeed":7,"AwayTeamMoneyLine":120,"HomeTeamMoneyLine":-141,"StadiumDetails":{"StadiumID":9,"Name":"Lucas Oil Stadium","City":"Indianapolis","State":"IN","Country":"USA","Capacity":67000,"PlayingSurface":"Dome","GeoLat":39.760056,"GeoLong":-86.163806}},{"GameKey":"201610109","SeasonType":1,"Season":2016,"Week":1,"Date":"2016-09-11T16:25:00","AwayTeam":"NYG","HomeTeam":"DAL","Channel":null,"PointSpread":1.0,"OverUnder":48.0,"StadiumID":17,"Canceled":false,"GeoLat":32.747778,"GeoLong":-97.092778,"ForecastTempLow":65,"ForecastTempHigh":87,"ForecastDescription":"Sunny","ForecastWindChill":64,"ForecastWindSpeed":7,"AwayTeamMoneyLine":-120,"HomeTeamMoneyLine":100,"StadiumDetails":{"StadiumID":17,"Name":"AT&T Stadium","City":"Arlington","State":"TX","Country":"USA","Capacity":80000,"PlayingSurface":"Dome","GeoLat":32.747778,"GeoLong":-97.092778}},{"GameKey":"201610101","SeasonType":1,"Season":2016,"Week":1,"Date":"2016-09-11T20:30:00","AwayTeam":"NE","HomeTeam":"ARI","Channel":null,"PointSpread":-9.5,"OverUnder":44.5,"StadiumID":29,"Canceled":false,"GeoLat":33.527558,"GeoLong":-112.263036,"ForecastTempLow":80,"ForecastTempHigh":104,"ForecastDescription":"Sunny","ForecastWindChill":100,"ForecastWindSpeed":14,"AwayTeamMoneyLine":320,"HomeTeamMoneyLine":-400,"StadiumDetails":{"StadiumID":29,"Name":"University of Phoenix Stadium","City":"Glendale","State":"AZ","Country":"USA","Capacity":63400,"PlayingSurface":"Dome","GeoLat":33.527558,"GeoLong":-112.263036}},{"GameKey":"201610135","SeasonType":1,"Season":2016,"Week":1,"Date":"2016-09-12T19:10:00","AwayTeam":"PIT","HomeTeam":"WAS","Channel":null,"PointSpread":2.5,"OverUnder":49.0,"StadiumID":19,"Canceled":false,"GeoLat":38.907652,"GeoLong":-76.864479,"ForecastTempLow":65,"ForecastTempHigh":82,"ForecastDescription":"Mostly Sunny","ForecastWindChill":64,"ForecastWindSpeed":11,"AwayTeamMoneyLine":-140,"HomeTeamMoneyLine":120,"StadiumDetails":{"StadiumID":19,"Name":"FedEx Field","City":"Landover","State":"MD","Country":"USA","Capacity":85000,"PlayingSurface":"Grass","GeoLat":38.907652,"GeoLong":-76.864479}},{"GameKey":"201610131","SeasonType":1,"Season":2016,"Week":1,"Date":"2016-09-12T22:20:00","AwayTeam":"LA","HomeTeam":"SF","Channel":null,"PointSpread":2.5,"OverUnder":43.0,"StadiumID":37,"Canceled":false,"GeoLat":37.404108,"GeoLong":-121.970274,"ForecastTempLow":55,"ForecastTempHigh":72,"ForecastDescription":"Partly Cloudy","ForecastWindChill":66,"ForecastWindSpeed":14,"AwayTeamMoneyLine":-145,"HomeTeamMoneyLine":125,"StadiumDetails":{"StadiumID":37,"Name":"Levi's Stadium","City":"Santa Clara","State":"CA","Country":"USA","Capacity":68500,"PlayingSurface":null,"GeoLat":37.404108,"GeoLong":-121.970274}},{"GameKey":"201610204","SeasonType":1,"Season":2016,"Week":2,"Date":"2016-09-15T20:25:00","AwayTeam":"NYJ","HomeTeam":"BUF","Channel":null,"PointSpread":-1.0,"OverUnder":40.5,"StadiumID":1,"Canceled":false,"GeoLat":42.773758,"GeoLong":-78.786837,"ForecastTempLow":51,"ForecastTempHigh":71,"ForecastDescription":"Mostly Sunny","ForecastWindChill":57,"ForecastWindSpeed":11,"AwayTeamMoneyLine":-105,"HomeTeamMoneyLine":-115,"StadiumDetails":{"StadiumID":1,"Name":"Ralph Wilson Stadium","City":"Orchard Park","State":"NY","Country":"USA","Capacity":73079,"PlayingSurface":"Artificial","GeoLat":42.773758,"GeoLong":-78.786837}},{"GameKey":"201610228","SeasonType":1,"Season":2016,"Week":2,"Date":"2016-09-18T13:00:00","AwayTeam":"CIN","HomeTeam":"PIT","Channel":null,"PointSpread":-3.0,"OverUnder":48.5,"StadiumID":8,"Canceled":false,"GeoLat":40.446751,"GeoLong":-80.015707,"ForecastTempLow":67,"ForecastTempHigh":74,"ForecastDescription":"Thunderstorms","ForecastWindChill":70,"ForecastWindSpeed":7,"AwayTeamMoneyLine":145,"HomeTeamMoneyLine":-165,"StadiumDetails":{"StadiumID":8,"Name":"Heinz Field","City":"Pittsburgh","State":"PA","Country":"USA","Capacity":65050,"PlayingSurface":"Grass","GeoLat":40.446751,"GeoLong":-80.015707}},{"GameKey":"201610211","SeasonType":1,"Season":2016,"Week":2,"Date":"2016-09-18T13:00:00","AwayTeam":"TEN","HomeTeam":"DET","Channel":null,"PointSpread":-6.0,"OverUnder":48.0,"StadiumID":21,"Canceled":false,"GeoLat":42.340021,"GeoLong":-83.045777,"ForecastTempLow":61,"ForecastTempHigh":77,"ForecastDescription":"Mostly Sunny","ForecastWindChill":64,"ForecastWindSpeed":11,"AwayTeamMoneyLine":210,"HomeTeamMoneyLine":-270,"StadiumDetails":{"StadiumID":21,"Name":"Ford Field","City":"Detroit","State":"MI","Country":"USA","Capacity":65000,"PlayingSurface":"Dome","GeoLat":42.340021,"GeoLong":-83.045777}},{"GameKey":"201610208","SeasonType":1,"Season":2016,"Week":2,"Date":"2016-09-18T13:00:00","AwayTeam":"BAL","HomeTeam":"CLE","Channel":null,"PointSpread":4.5,"OverUnder":42.0,"StadiumID":6,"Canceled":false,"GeoLat":41.505885,"GeoLong":-81.699458,"ForecastTempLow":68,"ForecastTempHigh":79,"ForecastDescription":"Partly Cloudy","ForecastWindChill":70,"ForecastWindSpeed":7,"AwayTeamMoneyLine":-222,"HomeTeamMoneyLine":180,"StadiumDetails":{"StadiumID":6,"Name":"FirstEnergy Stadium","City":"Cleveland","State":"OH","Country":"USA","Capacity":71516,"PlayingSurface":"Artificial","GeoLat":41.505885,"GeoLong":-81.699458}},{"GameKey":"201610235","SeasonType":1,"Season":2016,"Week":2,"Date":"2016-09-18T13:00:00","AwayTeam":"DAL","HomeTeam":"WAS","Channel":null,"PointSpread":-3.5,"OverUnder":47.0,"StadiumID":19,"Canceled":false,"GeoLat":38.907652,"GeoLong":-76.864479,"ForecastTempLow":70,"ForecastTempHigh":87,"ForecastDescription":"Thunderstorms","ForecastWindChill":70,"ForecastWindSpeed":11,"AwayTeamMoneyLine":160,"HomeTeamMoneyLine":-180,"StadiumDetails":{"StadiumID":19,"Name":"FedEx Field","City":"Landover","State":"MD","Country":"USA","Capacity":85000,"PlayingSurface":"Grass","GeoLat":38.907652,"GeoLong":-76.864479}},{"GameKey":"201610223","SeasonType":1,"Season":2016,"Week":2,"Date":"2016-09-18T13:00:00","AwayTeam":"NO","HomeTeam":"NYG","Channel":null,"PointSpread":-3.5,"OverUnder":54.0,"StadiumID":3,"Canceled":false,"GeoLat":40.813611,"GeoLong":-74.074444,"ForecastTempLow":69,"ForecastTempHigh":82,"ForecastDescription":"Thunderstorms","ForecastWindChill":70,"ForecastWindSpeed":11,"AwayTeamMoneyLine":155,"HomeTeamMoneyLine":-185,"StadiumDetails":{"StadiumID":3,"Name":"MetLife Stadium","City":"East Rutherford","State":"NJ","Country":"USA","Capacity":82500,"PlayingSurface":"Artificial","GeoLat":40.813611,"GeoLong":-74.074444}},{"GameKey":"201610205","SeasonType":1,"Season":2016,"Week":2,"Date":"2016-09-18T13:00:00","AwayTeam":"SF","HomeTeam":"CAR","Channel":null,"PointSpread":-12.0,"OverUnder":44.5,"StadiumID":26,"Canceled":false,"GeoLat":35.225808,"GeoLong":-80.852861,"ForecastTempLow":67,"ForecastTempHigh":87,"ForecastDescription":"Thunderstorms","ForecastWindChill":66,"ForecastWindSpeed":7,"AwayTeamMoneyLine":450,"HomeTeamMoneyLine":-625,"StadiumDetails":{"StadiumID":26,"Name":"Bank of America Stadium","City":"Charlotte","State":"NC","Country":"USA","Capacity":73778,"PlayingSurface":"Grass","GeoLat":35.225808,"GeoLong":-80.852861}},{"GameKey":"201610221","SeasonType":1,"Season":2016,"Week":2,"Date":"2016-09-18T13:00:00","AwayTeam":"MIA","HomeTeam":"NE","Channel":null,"PointSpread":-5.5,"OverUnder":42.5,"StadiumID":4,"Canceled":false,"GeoLat":42.090866,"GeoLong":-71.264244,"ForecastTempLow":63,"ForecastTempHigh":81,"ForecastDescription":"Thunderstorms","ForecastWindChill":68,"ForecastWindSpeed":14,"AwayTeamMoneyLine":200,"HomeTeamMoneyLine":-250,"StadiumDetails":{"StadiumID":4,"Name":"Gillette Stadium","City":"Foxborough","State":"MA","Country":"USA","Capacity":68756,"PlayingSurface":"Grass","GeoLat":42.090866,"GeoLong":-71.264244}},{"GameKey":"201610213","SeasonType":1,"Season":2016,"Week":2,"Date":"2016-09-18T13:00:00","AwayTeam":"KC","HomeTeam":"HOU","Channel":null,"PointSpread":-1.0,"OverUnder":42.0,"StadiumID":11,"Canceled":false,"GeoLat":29.684543,"GeoLong":-95.410932,"ForecastTempLow":76,"ForecastTempHigh":92,"ForecastDescription":"Partly Cloudy","ForecastWindChill":79,"ForecastWindSpeed":4,"AwayTeamMoneyLine":-105,"HomeTeamMoneyLine":-115,"StadiumDetails":{"StadiumID":11,"Name":"Reliant Stadium","City":"Houston","State":"TX","Country":"USA","Capacity":71054,"PlayingSurface":"Dome","GeoLat":29.684543,"GeoLong":-95.410932}},{"GameKey":"201610232","SeasonType":1,"Season":2016,"Week":2,"Date":"2016-09-18T16:05:00","AwayTeam":"SEA","HomeTeam":"LA","Channel":null,"PointSpread":5.5,"OverUnder":38.0,"StadiumID":38,"Canceled":false,"GeoLat":38.632975,"GeoLong":-90.188547,"ForecastTempLow":64,"ForecastTempHigh":89,"ForecastDescription":"Sunny","ForecastWindChill":64,"ForecastWindSpeed":4,"AwayTeamMoneyLine":-250,"HomeTeamMoneyLine":200,"StadiumDetails":{"StadiumID":38,"Name":"Los Angeles Memorial Coliseum","City":"Los Angeles","State":"CA","Country":"USA","Capacity":93607,"PlayingSurface":"Grass","GeoLat":38.632975,"GeoLong":-90.188547}},{"GameKey":"201610201","SeasonType":1,"Season":2016,"Week":2,"Date":"2016-09-18T16:05:00","AwayTeam":"TB","HomeTeam":"ARI","Channel":null,"PointSpread":-7.0,"OverUnder":49.5,"StadiumID":29,"Canceled":false,"GeoLat":33.527558,"GeoLong":-112.263036,"ForecastTempLow":70,"ForecastTempHigh":104,"ForecastDescription":"Sunny","ForecastWindChill":73,"ForecastWindSpeed":7,"AwayTeamMoneyLine":265,"HomeTeamMoneyLine":-330,"StadiumDetails":{"StadiumID":29,"Name":"University of Phoenix Stadium","City":"Glendale","State":"AZ","Country":"USA","Capacity":63400,"PlayingSurface":"Dome","GeoLat":33.527558,"GeoLong":-112.263036}},{"GameKey":"201610229","SeasonType":1,"Season":2016,"Week":2,"Date":"2016-09-18T16:25:00","AwayTeam":"JAX","HomeTeam":"SD","Channel":null,"PointSpread":-3.0,"OverUnder":47.5,"StadiumID":14,"Canceled":false,"GeoLat":32.783188,"GeoLong":-117.119439,"ForecastTempLow":62,"ForecastTempHigh":86,"ForecastDescription":"Mostly Sunny","ForecastWindChill":63,"ForecastWindSpeed":7,"AwayTeamMoneyLine":130,"HomeTeamMoneyLine":-150,"StadiumDetails":{"StadiumID":14,"Name":"Qualcomm Stadium","City":"San Diego","State":"CA","Country":"USA","Capacity":70561,"PlayingSurface":"Grass","GeoLat":32.783188,"GeoLong":-117.119439}},{"GameKey":"201610225","SeasonType":1,"Season":2016,"Week":2,"Date":"2016-09-18T16:25:00","AwayTeam":"ATL","HomeTeam":"OAK","Channel":null,"PointSpread":-4.0,"OverUnder":47.5,"StadiumID":16,"Canceled":false,"GeoLat":37.751613,"GeoLong":-122.200509,"ForecastTempLow":58,"ForecastTempHigh":80,"ForecastDescription":"Mostly Sunny","ForecastWindChill":61,"ForecastWindSpeed":4,"AwayTeamMoneyLine":170,"HomeTeamMoneyLine":-200,"StadiumDetails":{"StadiumID":16,"Name":"O.co Coliseum","City":"Oakland","State":"CA","Country":"USA","Capacity":53200,"PlayingSurface":"Grass","GeoLat":37.751613,"GeoLong":-122.200509}},{"GameKey":"201610210","SeasonType":1,"Season":2016,"Week":2,"Date":"2016-09-18T16:25:00","AwayTeam":"IND","HomeTeam":"DEN","Channel":null,"PointSpread":-6.5,"OverUnder":47.0,"StadiumID":13,"Canceled":false,"GeoLat":39.743936,"GeoLong":-105.020097,"ForecastTempLow":50,"ForecastTempHigh":84,"ForecastDescription":"Sunny","ForecastWindChill":54,"ForecastWindSpeed":11,"AwayTeamMoneyLine":230,"HomeTeamMoneyLine":-280,"StadiumDetails":{"StadiumID":13,"Name":"Sports Authority Field at Mile High","City":"Denver","State":"CO","Country":"USA","Capacity":76125,"PlayingSurface":"Grass","GeoLat":39.743936,"GeoLong":-105.020097}},{"GameKey":"201610220","SeasonType":1,"Season":2016,"Week":2,"Date":"2016-09-18T20:30:00","AwayTeam":"GB","HomeTeam":"MIN","Channel":null,"PointSpread":1.5,"OverUnder":42.5,"StadiumID":36,"Canceled":false,"GeoLat":44.976000,"GeoLong":-93.225000,"ForecastTempLow":54,"ForecastTempHigh":80,"ForecastDescription":"Partly Cloudy","ForecastWindChill":73,"ForecastWindSpeed":14,"AwayTeamMoneyLine":-126,"HomeTeamMoneyLine":106,"StadiumDetails":{"StadiumID":36,"Name":"TCF Bank Stadium","City":"Minneapolis","State":"MN","Country":"USA","Capacity":50805,"PlayingSurface":null,"GeoLat":44.976000,"GeoLong":-93.225000}},{"GameKey":"201610206","SeasonType":1,"Season":2016,"Week":2,"Date":"2016-09-19T20:30:00","AwayTeam":"PHI","HomeTeam":"CHI","Channel":null,"PointSpread":-3.0,"OverUnder":43.0,"StadiumID":20,"Canceled":false,"GeoLat":41.862320,"GeoLong":-87.616699,"ForecastTempLow":64,"ForecastTempHigh":81,"ForecastDescription":"Sunny","ForecastWindChill":81,"ForecastWindSpeed":18,"AwayTeamMoneyLine":140,"HomeTeamMoneyLine":-160,"StadiumDetails":{"StadiumID":20,"Name":"Soldier Field","City":"Chicago","State":"IL","Country":"USA","Capacity":61500,"PlayingSurface":"Grass","GeoLat":41.862320,"GeoLong":-87.616699}},{"GameKey":"201610321","SeasonType":1,"Season":2016,"Week":3,"Date":"2016-09-22T20:25:00","AwayTeam":"HOU","HomeTeam":"NE","Channel":null,"PointSpread":-1.0,"OverUnder":39.5,"StadiumID":4,"Canceled":false,"GeoLat":42.090866,"GeoLong":-71.264244,"ForecastTempLow":53,"ForecastTempHigh":82,"ForecastDescription":"Partly Cloudy","ForecastWindChill":66,"ForecastWindSpeed":11,"AwayTeamMoneyLine":-105,"HomeTeamMoneyLine":-115,"StadiumDetails":{"StadiumID":4,"Name":"Gillette Stadium","City":"Foxborough","State":"MA","Country":"USA","Capacity":68756,"PlayingSurface":"Grass","GeoLat":42.090866,"GeoLong":-71.264244}},{"GameKey":"201610304","SeasonType":1,"Season":2016,"Week":3,"Date":"2016-09-25T13:00:00","AwayTeam":"ARI","HomeTeam":"BUF","Channel":null,"PointSpread":4.5,"OverUnder":48.0,"StadiumID":1,"Canceled":false,"GeoLat":42.773758,"GeoLong":-78.786837,"ForecastTempLow":46,"ForecastTempHigh":66,"ForecastDescription":"Mostly Sunny","ForecastWindChill":39,"ForecastWindSpeed":11,"AwayTeamMoneyLine":-215,"HomeTeamMoneyLine":185,"StadiumDetails":{"StadiumID":1,"Name":"Ralph Wilson Stadium","City":"Orchard Park","State":"NY","Country":"USA","Capacity":73079,"PlayingSurface":"Artificial","GeoLat":42.773758,"GeoLong":-78.786837}},{"GameKey":"201610334","SeasonType":1,"Season":2016,"Week":3,"Date":"2016-09-25T13:00:00","AwayTeam":"OAK","HomeTeam":"TEN","Channel":null,"PointSpread":2.0,"OverUnder":47.0,"StadiumID":12,"Canceled":false,"GeoLat":36.166441,"GeoLong":-86.771253,"ForecastTempLow":67,"ForecastTempHigh":93,"ForecastDescription":"Sunny","ForecastWindChill":64,"ForecastWindSpeed":4,"AwayTeamMoneyLine":-125,"HomeTeamMoneyLine":105,"StadiumDetails":{"StadiumID":12,"Name":"LP Field","City":"Nashville","State":"TN","Country":"USA","Capacity":6914,"PlayingSurface":"Grass","GeoLat":36.166441,"GeoLong":-86.771253}},{"GameKey":"201610319","SeasonType":1,"Season":2016,"Week":3,"Date":"2016-09-25T13:00:00","AwayTeam":"CLE","HomeTeam":"MIA","Channel":null,"PointSpread":-10.0,"OverUnder":42.0,"StadiumID":2,"Canceled":false,"GeoLat":25.957740,"GeoLong":-80.238781,"ForecastTempLow":76,"ForecastTempHigh":86,"ForecastDescription":"Thunderstorms","ForecastWindChill":75,"ForecastWindSpeed":7,"AwayTeamMoneyLine":333,"HomeTeamMoneyLine":-450,"StadiumDetails":{"StadiumID":2,"Name":"Sun Life Stadium","City":"Miami Gardens","State":"FL","Country":"USA","Capacity":76100,"PlayingSurface":"Grass","GeoLat":25.957740,"GeoLong":-80.238781}},{"GameKey":"201610315","SeasonType":1,"Season":2016,"Week":3,"Date":"2016-09-25T13:00:00","AwayTeam":"BAL","HomeTeam":"JAX","Channel":null,"PointSpread":2.5,"OverUnder":45.0,"StadiumID":10,"Canceled":false,"GeoLat":30.323813,"GeoLong":-81.637199,"ForecastTempLow":73,"ForecastTempHigh":87,"ForecastDescription":"Partly Cloudy","ForecastWindChill":72,"ForecastWindSpeed":7,"AwayTeamMoneyLine":-135,"HomeTeamMoneyLine":115,"StadiumDetails":{"StadiumID":10,"Name":"EverBank Field","City":"Jacksonville","State":"FL","Country":"USA","Capacity":67246,"PlayingSurface":"Artificial","GeoLat":30.323813,"GeoLong":-81.637199}},{"GameKey":"201610312","SeasonType":1,"Season":2016,"Week":3,"Date":"2016-09-25T13:00:00","AwayTeam":"DET","HomeTeam":"GB","Channel":null,"PointSpread":-6.0,"OverUnder":47.5,"StadiumID":22,"Canceled":false,"GeoLat":44.501389,"GeoLong":-88.061944,"ForecastTempLow":56,"ForecastTempHigh":70,"ForecastDescription":"Scattered Thunderstorms","ForecastWindChill":61,"ForecastWindSpeed":14,"AwayTeamMoneyLine":213,"HomeTeamMoneyLine":-275,"StadiumDetails":{"StadiumID":22,"Name":"Lambeau Field","City":"Green Bay","State":"WI","Country":"USA","Capacity":80750,"PlayingSurface":"Grass","GeoLat":44.501389,"GeoLong":-88.061944}},{"GameKey":"201610307","SeasonType":1,"Season":2016,"Week":3,"Date":"2016-09-25T13:00:00","AwayTeam":"DEN","HomeTeam":"CIN","Channel":null,"PointSpread":-3.5,"OverUnder":41.5,"StadiumID":5,"Canceled":false,"GeoLat":39.095309,"GeoLong":-84.516003,"ForecastTempLow":62,"ForecastTempHigh":83,"ForecastDescription":"Sunny","ForecastWindChill":63,"ForecastWindSpeed":7,"AwayTeamMoneyLine":155,"HomeTeamMoneyLine":-185,"StadiumDetails":{"StadiumID":5,"Name":"Paul Brown Stadium","City":"Cincinnati","State":"OH","Country":"USA","Capacity":65535,"PlayingSurface":"Artificial","GeoLat":39.095309,"GeoLong":-84.516003}},{"GameKey":"201610305","SeasonType":1,"Season":2016,"Week":3,"Date":"2016-09-25T13:00:00","AwayTeam":"MIN","HomeTeam":"CAR","Channel":null,"PointSpread":-6.0,"OverUnder":43.0,"StadiumID":26,"Canceled":false,"GeoLat":35.225808,"GeoLong":-80.852861,"ForecastTempLow":69,"ForecastTempHigh":84,"ForecastDescription":"Scattered Thunderstorms","ForecastWindChill":66,"ForecastWindSpeed":4,"AwayTeamMoneyLine":220,"HomeTeamMoneyLine":-270,"StadiumDetails":{"StadiumID":26,"Name":"Bank of America Stadium","City":"Charlotte","State":"NC","Country":"USA","Capacity":73778,"PlayingSurface":"Grass","GeoLat":35.225808,"GeoLong":-80.852861}},{"GameKey":"201610323","SeasonType":1,"Season":2016,"Week":3,"Date":"2016-09-25T13:00:00","AwayTeam":"WAS","HomeTeam":"NYG","Channel":null,"PointSpread":-3.5,"OverUnder":47.0,"StadiumID":3,"Canceled":false,"GeoLat":40.813611,"GeoLong":-74.074444,"ForecastTempLow":51,"ForecastTempHigh":69,"ForecastDescription":"Sunny","ForecastWindChill":50,"ForecastWindSpeed":11,"AwayTeamMoneyLine":160,"HomeTeamMoneyLine":-180,"StadiumDetails":{"StadiumID":3,"Name":"MetLife Stadium","City":"East Rutherford","State":"NJ","Country":"USA","Capacity":82500,"PlayingSurface":"Artificial","GeoLat":40.813611,"GeoLong":-74.074444}},{"GameKey":"201610333","SeasonType":1,"Season":2016,"Week":3,"Date":"2016-09-25T16:05:00","AwayTeam":"LA","HomeTeam":"TB","Channel":null,"PointSpread":-3.5,"OverUnder":40.5,"StadiumID":24,"Canceled":false,"GeoLat":27.975967,"GeoLong":-82.503350,"ForecastTempLow":78,"ForecastTempHigh":90,"ForecastDescription":"Thunderstorms","ForecastWindChill":77,"ForecastWindSpeed":7,"AwayTeamMoneyLine":159,"HomeTeamMoneyLine":-179,"StadiumDetails":{"StadiumID":24,"Name":"Raymond James Stadium","City":"Tampa Bay","State":"FL","Country":"USA","Capacity":65890,"PlayingSurface":"Grass","GeoLat":27.975967,"GeoLong":-82.503350}},{"GameKey":"201610330","SeasonType":1,"Season":2016,"Week":3,"Date":"2016-09-25T16:05:00","AwayTeam":"SF","HomeTeam":"SEA","Channel":null,"PointSpread":-10.0,"OverUnder":42.0,"StadiumID":31,"Canceled":false,"GeoLat":47.595153,"GeoLong":-122.331625,"ForecastTempLow":57,"ForecastTempHigh":70,"ForecastDescription":"Partly Cloudy","ForecastWindChill":61,"ForecastWindSpeed":7,"AwayTeamMoneyLine":375,"HomeTeamMoneyLine":-450,"StadiumDetails":{"StadiumID":31,"Name":"CenturyLink Field","City":"Seattle","State":"WA","Country":"USA","Capacity":67000,"PlayingSurface":"Artificial","GeoLat":47.595153,"GeoLong":-122.331625}},{"GameKey":"201610316","SeasonType":1,"Season":2016,"Week":3,"Date":"2016-09-25T16:25:00","AwayTeam":"NYJ","HomeTeam":"KC","Channel":null,"PointSpread":-3.0,"OverUnder":44.0,"StadiumID":15,"Canceled":false,"GeoLat":39.049002,"GeoLong":-94.483864,"ForecastTempLow":63,"ForecastTempHigh":75,"ForecastDescription":"Thunderstorms","ForecastWindChill":70,"ForecastWindSpeed":11,"AwayTeamMoneyLine":135,"HomeTeamMoneyLine":-165,"StadiumDetails":{"StadiumID":15,"Name":"Arrowhead Stadium","City":"Kansas City","State":"MO","Country":"USA","Capacity":76416,"PlayingSurface":"Grass","GeoLat":39.049002,"GeoLong":-94.483864}},{"GameKey":"201610314","SeasonType":1,"Season":2016,"Week":3,"Date":"2016-09-25T16:25:00","AwayTeam":"SD","HomeTeam":"IND","Channel":null,"PointSpread":-1.5,"OverUnder":51.0,"StadiumID":9,"Canceled":false,"GeoLat":39.760056,"GeoLong":-86.163806,"ForecastTempLow":64,"ForecastTempHigh":84,"ForecastDescription":"Sunny","ForecastWindChill":64,"ForecastWindSpeed":7,"AwayTeamMoneyLine":105,"HomeTeamMoneyLine":-125,"StadiumDetails":{"StadiumID":9,"Name":"Lucas Oil Stadium","City":"Indianapolis","State":"IN","Country":"USA","Capacity":67000,"PlayingSurface":"Dome","GeoLat":39.760056,"GeoLong":-86.163806}},{"GameKey":"201610326","SeasonType":1,"Season":2016,"Week":3,"Date":"2016-09-25T16:25:00","AwayTeam":"PIT","HomeTeam":"PHI","Channel":null,"PointSpread":4.0,"OverUnder":46.5,"StadiumID":18,"Canceled":false,"GeoLat":39.900771,"GeoLong":-75.167469,"ForecastTempLow":54,"ForecastTempHigh":72,"ForecastDescription":"Sunny","ForecastWindChill":52,"ForecastWindSpeed":11,"AwayTeamMoneyLine":-200,"HomeTeamMoneyLine":170,"StadiumDetails":{"StadiumID":18,"Name":"Lincoln Financial Field","City":"Philadelphia","State":"PA","Country":"USA","Capacity":68532,"PlayingSurface":"Grass","GeoLat":39.900771,"GeoLong":-75.167469}},{"GameKey":"201610309","SeasonType":1,"Season":2016,"Week":3,"Date":"2016-09-25T20:30:00","AwayTeam":"CHI","HomeTeam":"DAL","Channel":null,"PointSpread":-6.5,"OverUnder":45.0,"StadiumID":17,"Canceled":false,"GeoLat":32.747778,"GeoLong":-97.092778,"ForecastTempLow":76,"ForecastTempHigh":85,"ForecastDescription":"Thunderstorms","ForecastWindChill":75,"ForecastWindSpeed":11,"AwayTeamMoneyLine":215,"HomeTeamMoneyLine":-265,"StadiumDetails":{"StadiumID":17,"Name":"AT&T Stadium","City":"Arlington","State":"TX","Country":"USA","Capacity":80000,"PlayingSurface":"Dome","GeoLat":32.747778,"GeoLong":-97.092778}},{"GameKey":"201610322","SeasonType":1,"Season":2016,"Week":3,"Date":"2016-09-26T20:30:00","AwayTeam":"ATL","HomeTeam":"NO","Channel":null,"PointSpread":-3.0,"OverUnder":54.0,"StadiumID":27,"Canceled":false,"GeoLat":29.950931,"GeoLong":-90.081364,"ForecastTempLow":76,"ForecastTempHigh":88,"ForecastDescription":"Thunderstorms","ForecastWindChill":81,"ForecastWindSpeed":4,"AwayTeamMoneyLine":131,"HomeTeamMoneyLine":-151,"StadiumDetails":{"StadiumID":27,"Name":"Mercedes-Benz Superdome","City":"New Orleans","State":"LA","Country":"USA","Capacity":73208,"PlayingSurface":"Dome","GeoLat":29.950931,"GeoLong":-90.081364}},{"GameKey":null,"SeasonType":1,"Season":2016,"Week":4,"Date":null,"AwayTeam":"BYE","HomeTeam":"GB","Channel":null,"PointSpread":null,"OverUnder":null,"StadiumID":null,"Canceled":null,"GeoLat":null,"GeoLong":null,"ForecastTempLow":null,"ForecastTempHigh":null,"ForecastDescription":null,"ForecastWindChill":null,"ForecastWindSpeed":1,"AwayTeamMoneyLine":null,"HomeTeamMoneyLine":null,"StadiumDetails":null},{"GameKey":null,"SeasonType":1,"Season":2016,"Week":4,"Date":null,"AwayTeam":"BYE","HomeTeam":"PHI","Channel":null,"PointSpread":null,"OverUnder":null,"StadiumID":null,"Canceled":null,"GeoLat":null,"GeoLong":null,"ForecastTempLow":null,"ForecastTempHigh":null,"ForecastDescription":null,"ForecastWindChill":null,"ForecastWindSpeed":1,"AwayTeamMoneyLine":null,"HomeTeamMoneyLine":null,"StadiumDetails":null},{"GameKey":"201610407","SeasonType":1,"Season":2016,"Week":4,"Date":"2016-09-29T20:25:00","AwayTeam":"MIA","HomeTeam":"CIN","Channel":null,"PointSpread":-7.5,"OverUnder":46.0,"StadiumID":5,"Canceled":false,"GeoLat":39.095309,"GeoLong":-84.516003,"ForecastTempLow":50,"ForecastTempHigh":67,"ForecastDescription":"Scattered Thunderstorms","ForecastWindChill":59,"ForecastWindSpeed":7,"AwayTeamMoneyLine":300,"HomeTeamMoneyLine":-380,"StadiumDetails":{"StadiumID":5,"Name":"Paul Brown Stadium","City":"Cincinnati","State":"OH","Country":"USA","Capacity":65535,"PlayingSurface":"Artificial","GeoLat":39.095309,"GeoLong":-84.516003}},{"GameKey":"201610415","SeasonType":1,"Season":2016,"Week":4,"Date":"2016-10-02T09:30:00","AwayTeam":"IND","HomeTeam":"JAX","Channel":null,"PointSpread":2.5,"OverUnder":49.0,"StadiumID":10,"Canceled":false,"GeoLat":30.323813,"GeoLong":-81.637199,"ForecastTempLow":72,"ForecastTempHigh":86,"ForecastDescription":"Thunderstorms","ForecastWindChill":0,"ForecastWindSpeed":0,"AwayTeamMoneyLine":-142,"HomeTeamMoneyLine":120,"StadiumDetails":{"StadiumID":10,"Name":"EverBank Field","City":"Jacksonville","State":"FL","Country":"USA","Capacity":67246,"PlayingSurface":"Artificial","GeoLat":30.323813,"GeoLong":-81.637199}},{"GameKey":"201610413","SeasonType":1,"Season":2016,"Week":4,"Date":"2016-10-02T13:00:00","AwayTeam":"TEN","HomeTeam":"HOU","Channel":null,"PointSpread":-4.5,"OverUnder":40.5,"StadiumID":11,"Canceled":false,"GeoLat":29.684543,"GeoLong":-95.410932,"ForecastTempLow":67,"ForecastTempHigh":85,"ForecastDescription":"Sunny","ForecastWindChill":0,"ForecastWindSpeed":0,"AwayTeamMoneyLine":180,"HomeTeamMoneyLine":-220,"StadiumDetails":{"StadiumID":11,"Name":"Reliant Stadium","City":"Houston","State":"TX","Country":"USA","Capacity":71054,"PlayingSurface":"Dome","GeoLat":29.684543,"GeoLong":-95.410932}},{"GameKey":"201610435","SeasonType":1,"Season":2016,"Week":4,"Date":"2016-10-02T13:00:00","AwayTeam":"CLE","HomeTeam":"WAS","Channel":null,"PointSpread":-7.5,"OverUnder":46.5,"StadiumID":19,"Canceled":false,"GeoLat":38.907652,"GeoLong":-76.864479,"ForecastTempLow":65,"ForecastTempHigh":77,"ForecastDescription":"Scattered Thunderstorms","ForecastWindChill":0,"ForecastWindSpeed":0,"AwayTeamMoneyLine":300,"HomeTeamMoneyLine":-360,"StadiumDetails":{"StadiumID":19,"Name":"FedEx Field","City":"Landover","State":"MD","Country":"USA","Capacity":85000,"PlayingSurface":"Grass","GeoLat":38.907652,"GeoLong":-76.864479}},{"GameKey":"201610424","SeasonType":1,"Season":2016,"Week":4,"Date":"2016-10-02T13:00:00","AwayTeam":"SEA","HomeTeam":"NYJ","Channel":null,"PointSpread":2.5,"OverUnder":40.0,"StadiumID":3,"Canceled":false,"GeoLat":40.813611,"GeoLong":-74.074444,"ForecastTempLow":58,"ForecastTempHigh":65,"ForecastDescription":"Scattered Thunderstorms","ForecastWindChill":0,"ForecastWindSpeed":0,"AwayTeamMoneyLine":-140,"HomeTeamMoneyLine":120,"StadiumDetails":{"StadiumID":3,"Name":"MetLife Stadium","City":"East Rutherford","State":"NJ","Country":"USA","Capacity":82500,"PlayingSurface":"Artificial","GeoLat":40.813611,"GeoLong":-74.074444}},{"GameKey":"201610421","SeasonType":1,"Season":2016,"Week":4,"Date":"2016-10-02T13:00:00","AwayTeam":"BUF","HomeTeam":"NE","Channel":null,"PointSpread":-6.0,"OverUnder":null,"StadiumID":4,"Canceled":false,"GeoLat":42.090866,"GeoLong":-71.264244,"ForecastTempLow":52,"ForecastTempHigh":62,"ForecastDescription":"Scattered Showers","ForecastWindChill":0,"ForecastWindSpeed":0,"AwayTeamMoneyLine":null,"HomeTeamMoneyLine":null,"StadiumDetails":{"StadiumID":4,"Name":"Gillette Stadium","City":"Foxborough","State":"MA","Country":"USA","Capacity":68756,"PlayingSurface":"Grass","GeoLat":42.090866,"GeoLong":-71.264244}},{"GameKey":"201610402","SeasonType":1,"Season":2016,"Week":4,"Date":"2016-10-02T13:00:00","AwayTeam":"CAR","HomeTeam":"ATL","Channel":null,"PointSpread":3.0,"OverUnder":50.0,"StadiumID":25,"Canceled":false,"GeoLat":33.757614,"GeoLong":-84.400972,"ForecastTempLow":57,"ForecastTempHigh":81,"ForecastDescription":"Partly Cloudy","ForecastWindChill":0,"ForecastWindSpeed":0,"AwayTeamMoneyLine":-170,"HomeTeamMoneyLine":145,"StadiumDetails":{"StadiumID":25,"Name":"Georgia Dome","City":"Atlanta","State":"GA","Country":"USA","Capacity":74228,"PlayingSurface":"Dome","GeoLat":33.757614,"GeoLong":-84.400972}},{"GameKey":"201610403","SeasonType":1,"Season":2016,"Week":4,"Date":"2016-10-02T13:00:00","AwayTeam":"OAK","HomeTeam":"BAL","Channel":null,"PointSpread":-3.5,"OverUnder":46.5,"StadiumID":7,"Canceled":false,"GeoLat":39.277985,"GeoLong":-76.622788,"ForecastTempLow":61,"ForecastTempHigh":75,"ForecastDescription":"Mostly Cloudy","ForecastWindChill":0,"ForecastWindSpeed":0,"AwayTeamMoneyLine":150,"HomeTeamMoneyLine":-170,"StadiumDetails":{"StadiumID":7,"Name":"M&T Bank Stadium","City":"Baltimore","State":"MD","Country":"USA","Capacity":71008,"PlayingSurface":"Artificial","GeoLat":39.277985,"GeoLong":-76.622788}},{"GameKey":"201610406","SeasonType":1,"Season":2016,"Week":4,"Date":"2016-10-02T13:00:00","AwayTeam":"DET","HomeTeam":"CHI","Channel":null,"PointSpread":3.0,"OverUnder":48.0,"StadiumID":20,"Canceled":false,"GeoLat":41.862320,"GeoLong":-87.616699,"ForecastTempLow":58,"ForecastTempHigh":65,"ForecastDescription":"Partly Cloudy","ForecastWindChill":0,"ForecastWindSpeed":0,"AwayTeamMoneyLine":-145,"HomeTeamMoneyLine":125,"StadiumDetails":{"StadiumID":20,"Name":"Soldier Field","City":"Chicago","State":"IL","Country":"USA","Capacity":61500,"PlayingSurface":"Grass","GeoLat":41.862320,"GeoLong":-87.616699}},{"GameKey":"201610433","SeasonType":1,"Season":2016,"Week":4,"Date":"2016-10-02T16:05:00","AwayTeam":"DEN","HomeTeam":"TB","Channel":null,"PointSpread":3.0,"OverUnder":43.0,"StadiumID":24,"Canceled":false,"GeoLat":27.975967,"GeoLong":-82.503350,"ForecastTempLow":76,"ForecastTempHigh":89,"ForecastDescription":"Thunderstorms","ForecastWindChill":0,"ForecastWindSpeed":0,"AwayTeamMoneyLine":-175,"HomeTeamMoneyLine":145,"StadiumDetails":{"StadiumID":24,"Name":"Raymond James Stadium","City":"Tampa Bay","State":"FL","Country":"USA","Capacity":65890,"PlayingSurface":"Grass","GeoLat":27.975967,"GeoLong":-82.503350}},{"GameKey":"201610401","SeasonType":1,"Season":2016,"Week":4,"Date":"2016-10-02T16:25:00","AwayTeam":"LA","HomeTeam":"ARI","Channel":null,"PointSpread":-7.5,"OverUnder":42.5,"StadiumID":29,"Canceled":false,"GeoLat":33.527558,"GeoLong":-112.263036,"ForecastTempLow":73,"ForecastTempHigh":93,"ForecastDescription":"Mostly Sunny","ForecastWindChill":0,"ForecastWindSpeed":0,"AwayTeamMoneyLine":275,"HomeTeamMoneyLine":-350,"StadiumDetails":{"StadiumID":29,"Name":"University of Phoenix Stadium","City":"Glendale","State":"AZ","Country":"USA","Capacity":63400,"PlayingSurface":"Dome","GeoLat":33.527558,"GeoLong":-112.263036}},{"GameKey":"201610429","SeasonType":1,"Season":2016,"Week":4,"Date":"2016-10-02T16:25:00","AwayTeam":"NO","HomeTeam":"SD","Channel":null,"PointSpread":-4.0,"OverUnder":53.5,"StadiumID":14,"Canceled":false,"GeoLat":32.783188,"GeoLong":-117.119439,"ForecastTempLow":62,"ForecastTempHigh":76,"ForecastDescription":"Mostly Sunny","ForecastWindChill":0,"ForecastWindSpeed":0,"AwayTeamMoneyLine":165,"HomeTeamMoneyLine":-200,"StadiumDetails":{"StadiumID":14,"Name":"Qualcomm Stadium","City":"San Diego","State":"CA","Country":"USA","Capacity":70561,"PlayingSurface":"Grass","GeoLat":32.783188,"GeoLong":-117.119439}},{"GameKey":"201610431","SeasonType":1,"Season":2016,"Week":4,"Date":"2016-10-02T16:25:00","AwayTeam":"DAL","HomeTeam":"SF","Channel":null,"PointSpread":2.0,"OverUnder":45.0,"StadiumID":37,"Canceled":false,"GeoLat":37.404108,"GeoLong":-121.970274,"ForecastTempLow":50,"ForecastTempHigh":70,"ForecastDescription":"Partly Cloudy","ForecastWindChill":0,"ForecastWindSpeed":0,"AwayTeamMoneyLine":-130,"HomeTeamMoneyLine":110,"StadiumDetails":{"StadiumID":37,"Name":"Levi's Stadium","City":"Santa Clara","State":"CA","Country":"USA","Capacity":68500,"PlayingSurface":null,"GeoLat":37.404108,"GeoLong":-121.970274}},{"GameKey":"201610428","SeasonType":1,"Season":2016,"Week":4,"Date":"2016-10-02T20:30:00","AwayTeam":"KC","HomeTeam":"PIT","Channel":null,"PointSpread":-5.0,"OverUnder":47.0,"StadiumID":8,"Canceled":false,"GeoLat":40.446751,"GeoLong":-80.015707,"ForecastTempLow":57,"ForecastTempHigh":72,"ForecastDescription":"Rain","ForecastWindChill":0,"ForecastWindSpeed":0,"AwayTeamMoneyLine":190,"HomeTeamMoneyLine":-230,"StadiumDetails":{"StadiumID":8,"Name":"Heinz Field","City":"Pittsburgh","State":"PA","Country":"USA","Capacity":65050,"PlayingSurface":"Grass","GeoLat":40.446751,"GeoLong":-80.015707}},{"GameKey":"201610420","SeasonType":1,"Season":2016,"Week":4,"Date":"2016-10-03T20:30:00","AwayTeam":"NYG","HomeTeam":"MIN","Channel":null,"PointSpread":-5.0,"OverUnder":43.0,"StadiumID":36,"Canceled":false,"GeoLat":44.976000,"GeoLong":-93.225000,"ForecastTempLow":55,"ForecastTempHigh":71,"ForecastDescription":"Partly Cloudy","ForecastWindChill":0,"ForecastWindSpeed":0,"AwayTeamMoneyLine":195,"HomeTeamMoneyLine":-235,"StadiumDetails":{"StadiumID":36,"Name":"TCF Bank Stadium","City":"Minneapolis","State":"MN","Country":"USA","Capacity":50805,"PlayingSurface":null,"GeoLat":44.976000,"GeoLong":-93.225000}},{"GameKey":null,"SeasonType":1,"Season":2016,"Week":5,"Date":null,"AwayTeam":"BYE","HomeTeam":"JAX","Channel":null,"PointSpread":null,"OverUnder":null,"StadiumID":null,"Canceled":null,"GeoLat":null,"GeoLong":null,"ForecastTempLow":null,"ForecastTempHigh":null,"ForecastDescription":null,"ForecastWindChill":null,"ForecastWindSpeed":1,"AwayTeamMoneyLine":null,"HomeTeamMoneyLine":null,"StadiumDetails":null},{"GameKey":null,"SeasonType":1,"Season":2016,"Week":5,"Date":null,"AwayTeam":"BYE","HomeTeam":"KC","Channel":null,"PointSpread":null,"OverUnder":null,"StadiumID":null,"Canceled":null,"GeoLat":null,"GeoLong":null,"ForecastTempLow":null,"ForecastTempHigh":null,"ForecastDescription":null,"ForecastWindChill":null,"ForecastWindSpeed":1,"AwayTeamMoneyLine":null,"HomeTeamMoneyLine":null,"StadiumDetails":null},{"GameKey":null,"SeasonType":1,"Season":2016,"Week":5,"Date":null,"AwayTeam":"BYE","HomeTeam":"NO","Channel":null,"PointSpread":null,"OverUnder":null,"StadiumID":null,"Canceled":null,"GeoLat":null,"GeoLong":null,"ForecastTempLow":null,"ForecastTempHigh":null,"ForecastDescription":null,"ForecastWindChill":null,"ForecastWindSpeed":1,"AwayTeamMoneyLine":null,"HomeTeamMoneyLine":null,"StadiumDetails":null},{"GameKey":null,"SeasonType":1,"Season":2016,"Week":5,"Date":null,"AwayTeam":"BYE","HomeTeam":"SEA","Channel":null,"PointSpread":null,"OverUnder":null,"StadiumID":null,"Canceled":null,"GeoLat":null,"GeoLong":null,"ForecastTempLow":null,"ForecastTempHigh":null,"ForecastDescription":null,"ForecastWindChill":null,"ForecastWindSpeed":1,"AwayTeamMoneyLine":null,"HomeTeamMoneyLine":null,"StadiumDetails":null},{"GameKey":"201610531","SeasonType":1,"Season":2016,"Week":5,"Date":"2016-10-06T20:25:00","AwayTeam":"ARI","HomeTeam":"SF","Channel":null,"PointSpread":null,"OverUnder":null,"StadiumID":37,"Canceled":false,"GeoLat":null,"GeoLong":null,"ForecastTempLow":null,"ForecastTempHigh":null,"ForecastDescription":null,"ForecastWindChill":null,"ForecastWindSpeed":null,"AwayTeamMoneyLine":null,"HomeTeamMoneyLine":null,"StadiumDetails":{"StadiumID":37,"Name":"Levi's Stadium","City":"Santa Clara","State":"CA","Country":"USA","Capacity":68500,"PlayingSurface":null,"GeoLat":37.404108,"GeoLong":-121.970274}},{"GameKey":"201610508","SeasonType":1,"Season":2016,"Week":5,"Date":"2016-10-09T13:00:00","AwayTeam":"NE","HomeTeam":"CLE","Channel":null,"PointSpread":null,"OverUnder":null,"StadiumID":6,"Canceled":false,"GeoLat":null,"GeoLong":null,"ForecastTempLow":null,"ForecastTempHigh":null,"ForecastDescription":null,"ForecastWindChill":null,"ForecastWindSpeed":null,"AwayTeamMoneyLine":null,"HomeTeamMoneyLine":null,"StadiumDetails":{"StadiumID":6,"Name":"FirstEnergy Stadium","City":"Cleveland","State":"OH","Country":"USA","Capacity":71516,"PlayingSurface":"Artificial","GeoLat":41.505885,"GeoLong":-81.699458}},{"GameKey":"201610511","SeasonType":1,"Season":2016,"Week":5,"Date":"2016-10-09T13:00:00","AwayTeam":"PHI","HomeTeam":"DET","Channel":null,"PointSpread":null,"OverUnder":null,"StadiumID":21,"Canceled":false,"GeoLat":null,"GeoLong":null,"ForecastTempLow":null,"ForecastTempHigh":null,"ForecastDescription":null,"ForecastWindChill":null,"ForecastWindSpeed":null,"AwayTeamMoneyLine":null,"HomeTeamMoneyLine":null,"StadiumDetails":{"StadiumID":21,"Name":"Ford Field","City":"Detroit","State":"MI","Country":"USA","Capacity":65000,"PlayingSurface":"Dome","GeoLat":42.340021,"GeoLong":-83.045777}},{"GameKey":"201610514","SeasonType":1,"Season":2016,"Week":5,"Date":"2016-10-09T13:00:00","AwayTeam":"CHI","HomeTeam":"IND","Channel":null,"PointSpread":null,"OverUnder":null,"StadiumID":9,"Canceled":false,"GeoLat":null,"GeoLong":null,"ForecastTempLow":null,"ForecastTempHigh":null,"ForecastDescription":null,"ForecastWindChill":null,"ForecastWindSpeed":null,"AwayTeamMoneyLine":null,"HomeTeamMoneyLine":null,"StadiumDetails":{"StadiumID":9,"Name":"Lucas Oil Stadium","City":"Indianapolis","State":"IN","Country":"USA","Capacity":67000,"PlayingSurface":"Dome","GeoLat":39.760056,"GeoLong":-86.163806}},{"GameKey":"201610519","SeasonType":1,"Season":2016,"Week":5,"Date":"2016-10-09T13:00:00","AwayTeam":"TEN","HomeTeam":"MIA","Channel":null,"PointSpread":null,"OverUnder":null,"StadiumID":2,"Canceled":false,"GeoLat":null,"GeoLong":null,"ForecastTempLow":null,"ForecastTempHigh":null,"ForecastDescription":null,"ForecastWindChill":null,"ForecastWindSpeed":null,"AwayTeamMoneyLine":null,"HomeTeamMoneyLine":null,"StadiumDetails":{"StadiumID":2,"Name":"Sun Life Stadium","City":"Miami Gardens","State":"FL","Country":"USA","Capacity":76100,"PlayingSurface":"Grass","GeoLat":25.957740,"GeoLong":-80.238781}},{"GameKey":"201610503","SeasonType":1,"Season":2016,"Week":5,"Date":"2016-10-09T13:00:00","AwayTeam":"WAS","HomeTeam":"BAL","Channel":null,"PointSpread":null,"OverUnder":null,"StadiumID":7,"Canceled":false,"GeoLat":null,"GeoLong":null,"ForecastTempLow":null,"ForecastTempHigh":null,"ForecastDescription":null,"ForecastWindChill":null,"ForecastWindSpeed":null,"AwayTeamMoneyLine":null,"HomeTeamMoneyLine":null,"StadiumDetails":{"StadiumID":7,"Name":"M&T Bank Stadium","City":"Baltimore","State":"MD","Country":"USA","Capacity":71008,"PlayingSurface":"Artificial","GeoLat":39.277985,"GeoLong":-76.622788}},{"GameKey":"201610520","SeasonType":1,"Season":2016,"Week":5,"Date":"2016-10-09T13:00:00","AwayTeam":"HOU","HomeTeam":"MIN","Channel":null,"PointSpread":null,"OverUnder":null,"StadiumID":36,"Canceled":false,"GeoLat":null,"GeoLong":null,"ForecastTempLow":null,"ForecastTempHigh":null,"ForecastDescription":null,"ForecastWindChill":null,"ForecastWindSpeed":null,"AwayTeamMoneyLine":null,"HomeTeamMoneyLine":null,"StadiumDetails":{"StadiumID":36,"Name":"TCF Bank Stadium","City":"Minneapolis","State":"MN","Country":"USA","Capacity":50805,"PlayingSurface":null,"GeoLat":44.976000,"GeoLong":-93.225000}},{"GameKey":"201610528","SeasonType":1,"Season":2016,"Week":5,"Date":"2016-10-09T13:00:00","AwayTeam":"NYJ","HomeTeam":"PIT","Channel":null,"PointSpread":null,"OverUnder":null,"StadiumID":8,"Canceled":false,"GeoLat":null,"GeoLong":null,"ForecastTempLow":null,"ForecastTempHigh":null,"ForecastDescription":null,"ForecastWindChill":null,"ForecastWindSpeed":null,"AwayTeamMoneyLine":null,"HomeTeamMoneyLine":null,"StadiumDetails":{"StadiumID":8,"Name":"Heinz Field","City":"Pittsburgh","State":"PA","Country":"USA","Capacity":65050,"PlayingSurface":"Grass","GeoLat":40.446751,"GeoLong":-80.015707}},{"GameKey":"201610510","SeasonType":1,"Season":2016,"Week":5,"Date":"2016-10-09T16:05:00","AwayTeam":"ATL","HomeTeam":"DEN","Channel":null,"PointSpread":null,"OverUnder":null,"StadiumID":13,"Canceled":false,"GeoLat":null,"GeoLong":null,"ForecastTempLow":null,"ForecastTempHigh":null,"ForecastDescription":null,"ForecastWindChill":null,"ForecastWindSpeed":null,"AwayTeamMoneyLine":null,"HomeTeamMoneyLine":null,"StadiumDetails":{"StadiumID":13,"Name":"Sports Authority Field at Mile High","City":"Denver","State":"CO","Country":"USA","Capacity":76125,"PlayingSurface":"Grass","GeoLat":39.743936,"GeoLong":-105.020097}},{"GameKey":"201610509","SeasonType":1,"Season":2016,"Week":5,"Date":"2016-10-09T16:25:00","AwayTeam":"CIN","HomeTeam":"DAL","Channel":null,"PointSpread":null,"OverUnder":null,"StadiumID":17,"Canceled":false,"GeoLat":null,"GeoLong":null,"ForecastTempLow":null,"ForecastTempHigh":null,"ForecastDescription":null,"ForecastWindChill":null,"ForecastWindSpeed":null,"AwayTeamMoneyLine":null,"HomeTeamMoneyLine":null,"StadiumDetails":{"StadiumID":17,"Name":"AT&T Stadium","City":"Arlington","State":"TX","Country":"USA","Capacity":80000,"PlayingSurface":"Dome","GeoLat":32.747778,"GeoLong":-97.092778}},{"GameKey":"201610532","SeasonType":1,"Season":2016,"Week":5,"Date":"2016-10-09T16:25:00","AwayTeam":"BUF","HomeTeam":"LA","Channel":null,"PointSpread":null,"OverUnder":null,"StadiumID":38,"Canceled":false,"GeoLat":null,"GeoLong":null,"ForecastTempLow":null,"ForecastTempHigh":null,"ForecastDescription":null,"ForecastWindChill":null,"ForecastWindSpeed":null,"AwayTeamMoneyLine":null,"HomeTeamMoneyLine":null,"StadiumDetails":{"StadiumID":38,"Name":"Los Angeles Memorial Coliseum","City":"Los Angeles","State":"CA","Country":"USA","Capacity":93607,"PlayingSurface":"Grass","GeoLat":38.632975,"GeoLong":-90.188547}},{"GameKey":"201610525","SeasonType":1,"Season":2016,"Week":5,"Date":"2016-10-09T16:25:00","AwayTeam":"SD","HomeTeam":"OAK","Channel":null,"PointSpread":null,"OverUnder":null,"StadiumID":16,"Canceled":false,"GeoLat":null,"GeoLong":null,"ForecastTempLow":null,"ForecastTempHigh":null,"ForecastDescription":null,"ForecastWindChill":null,"ForecastWindSpeed":null,"AwayTeamMoneyLine":null,"HomeTeamMoneyLine":null,"StadiumDetails":{"StadiumID":16,"Name":"O.co Coliseum","City":"Oakland","State":"CA","Country":"USA","Capacity":53200,"PlayingSurface":"Grass","GeoLat":37.751613,"GeoLong":-122.200509}},{"GameKey":"201610512","SeasonType":1,"Season":2016,"Week":5,"Date":"2016-10-09T20:30:00","AwayTeam":"NYG","HomeTeam":"GB","Channel":null,"PointSpread":null,"OverUnder":null,"StadiumID":22,"Canceled":false,"GeoLat":null,"GeoLong":null,"ForecastTempLow":null,"ForecastTempHigh":null,"ForecastDescription":null,"ForecastWindChill":null,"ForecastWindSpeed":null,"AwayTeamMoneyLine":null,"HomeTeamMoneyLine":null,"StadiumDetails":{"StadiumID":22,"Name":"Lambeau Field","City":"Green Bay","State":"WI","Country":"USA","Capacity":80750,"PlayingSurface":"Grass","GeoLat":44.501389,"GeoLong":-88.061944}},{"GameKey":"201610505","SeasonType":1,"Season":2016,"Week":5,"Date":"2016-10-10T20:30:00","AwayTeam":"TB","HomeTeam":"CAR","Channel":null,"PointSpread":null,"OverUnder":null,"StadiumID":26,"Canceled":false,"GeoLat":null,"GeoLong":null,"ForecastTempLow":null,"ForecastTempHigh":null,"ForecastDescription":null,"ForecastWindChill":null,"ForecastWindSpeed":null,"AwayTeamMoneyLine":null,"HomeTeamMoneyLine":null,"StadiumDetails":{"StadiumID":26,"Name":"Bank of America Stadium","City":"Charlotte","State":"NC","Country":"USA","Capacity":73778,"PlayingSurface":"Grass","GeoLat":35.225808,"GeoLong":-80.852861}},{"GameKey":null,"SeasonType":1,"Season":2016,"Week":6,"Date":null,"AwayTeam":"BYE","HomeTeam":"MIN","Channel":null,"PointSpread":null,"OverUnder":null,"StadiumID":null,"Canceled":null,"GeoLat":null,"GeoLong":null,"ForecastTempLow":null,"ForecastTempHigh":null,"ForecastDescription":null,"ForecastWindChill":null,"ForecastWindSpeed":1,"AwayTeamMoneyLine":null,"HomeTeamMoneyLine":null,"StadiumDetails":null},{"GameKey":null,"SeasonType":1,"Season":2016,"Week":6,"Date":null,"AwayTeam":"BYE","HomeTeam":"TB","Channel":null,"PointSpread":null,"OverUnder":null,"StadiumID":null,"Canceled":null,"GeoLat":null,"GeoLong":null,"ForecastTempLow":null,"ForecastTempHigh":null,"ForecastDescription":null,"ForecastWindChill":null,"ForecastWindSpeed":1,"AwayTeamMoneyLine":null,"HomeTeamMoneyLine":null,"StadiumDetails":null},{"GameKey":"201610629","SeasonType":1,"Season":2016,"Week":6,"Date":"2016-10-13T20:25:00","AwayTeam":"DEN","HomeTeam":"SD","Channel":null,"PointSpread":null,"OverUnder":null,"StadiumID":14,"Canceled":false,"GeoLat":null,"GeoLong":null,"ForecastTempLow":null,"ForecastTempHigh":null,"ForecastDescription":null,"ForecastWindChill":null,"ForecastWindSpeed":null,"AwayTeamMoneyLine":null,"HomeTeamMoneyLine":null,"StadiumDetails":{"StadiumID":14,"Name":"Qualcomm Stadium","City":"San Diego","State":"CA","Country":"USA","Capacity":70561,"PlayingSurface":"Grass","GeoLat":32.783188,"GeoLong":-117.119439}},{"GameKey":"201610604","SeasonType":1,"Season":2016,"Week":6,"Date":"2016-10-16T13:00:00","AwayTeam":"SF","HomeTeam":"BUF","Channel":null,"PointSpread":null,"OverUnder":null,"StadiumID":1,"Canceled":false,"GeoLat":null,"GeoLong":null,"ForecastTempLow":null,"ForecastTempHigh":null,"ForecastDescription":null,"ForecastWindChill":null,"ForecastWindSpeed":null,"AwayTeamMoneyLine":null,"HomeTeamMoneyLine":null,"StadiumDetails":{"StadiumID":1,"Name":"Ralph Wilson Stadium","City":"Orchard Park","State":"NY","Country":"USA","Capacity":73079,"PlayingSurface":"Artificial","GeoLat":42.773758,"GeoLong":-78.786837}},{"GameKey":"201610635","SeasonType":1,"Season":2016,"Week":6,"Date":"2016-10-16T13:00:00","AwayTeam":"PHI","HomeTeam":"WAS","Channel":null,"PointSpread":null,"OverUnder":null,"StadiumID":19,"Canceled":false,"GeoLat":null,"GeoLong":null,"ForecastTempLow":null,"ForecastTempHigh":null,"ForecastDescription":null,"ForecastWindChill":null,"ForecastWindSpeed":null,"AwayTeamMoneyLine":null,"HomeTeamMoneyLine":null,"StadiumDetails":{"StadiumID":19,"Name":"FedEx Field","City":"Landover","State":"MD","Country":"USA","Capacity":85000,"PlayingSurface":"Grass","GeoLat":38.907652,"GeoLong":-76.864479}},{"GameKey":"201610634","SeasonType":1,"Season":2016,"Week":6,"Date":"2016-10-16T13:00:00","AwayTeam":"CLE","HomeTeam":"TEN","Channel":null,"PointSpread":null,"OverUnder":null,"StadiumID":12,"Canceled":false,"GeoLat":null,"GeoLong":null,"ForecastTempLow":null,"ForecastTempHigh":null,"ForecastDescription":null,"ForecastWindChill":null,"ForecastWindSpeed":null,"AwayTeamMoneyLine":null,"HomeTeamMoneyLine":null,"StadiumDetails":{"StadiumID":12,"Name":"LP Field","City":"Nashville","State":"TN","Country":"USA","Capacity":6914,"PlayingSurface":"Grass","GeoLat":36.166441,"GeoLong":-86.771253}},{"GameKey":"201610623","SeasonType":1,"Season":2016,"Week":6,"Date":"2016-10-16T13:00:00","AwayTeam":"BAL","HomeTeam":"NYG","Channel":null,"PointSpread":null,"OverUnder":null,"StadiumID":3,"Canceled":false,"GeoLat":null,"GeoLong":null,"ForecastTempLow":null,"ForecastTempHigh":null,"ForecastDescription":null,"ForecastWindChill":null,"ForecastWindSpeed":null,"AwayTeamMoneyLine":null,"HomeTeamMoneyLine":null,"StadiumDetails":{"StadiumID":3,"Name":"MetLife Stadium","City":"East Rutherford","State":"NJ","Country":"USA","Capacity":82500,"PlayingSurface":"Artificial","GeoLat":40.813611,"GeoLong":-74.074444}},{"GameKey":"201610622","SeasonType":1,"Season":2016,"Week":6,"Date":"2016-10-16T13:00:00","AwayTeam":"CAR","HomeTeam":"NO","Channel":null,"PointSpread":null,"OverUnder":null,"StadiumID":27,"Canceled":false,"GeoLat":null,"GeoLong":null,"ForecastTempLow":null,"ForecastTempHigh":null,"ForecastDescription":null,"ForecastWindChill":null,"ForecastWindSpeed":null,"AwayTeamMoneyLine":null,"HomeTeamMoneyLine":null,"StadiumDetails":{"StadiumID":27,"Name":"Mercedes-Benz Superdome","City":"New Orleans","State":"LA","Country":"USA","Capacity":73208,"PlayingSurface":"Dome","GeoLat":29.950931,"GeoLong":-90.081364}},{"GameKey":"201610606","SeasonType":1,"Season":2016,"Week":6,"Date":"2016-10-16T13:00:00","AwayTeam":"JAX","HomeTeam":"CHI","Channel":null,"PointSpread":null,"OverUnder":null,"StadiumID":20,"Canceled":false,"GeoLat":null,"GeoLong":null,"ForecastTempLow":null,"ForecastTempHigh":null,"ForecastDescription":null,"ForecastWindChill":null,"ForecastWindSpeed":null,"AwayTeamMoneyLine":null,"HomeTeamMoneyLine":null,"StadiumDetails":{"StadiumID":20,"Name":"Soldier Field","City":"Chicago","State":"IL","Country":"USA","Capacity":61500,"PlayingSurface":"Grass","GeoLat":41.862320,"GeoLong":-87.616699}},{"GameKey":"201610611","SeasonType":1,"Season":2016,"Week":6,"Date":"2016-10-16T13:00:00","AwayTeam":"LA","HomeTeam":"DET","Channel":null,"PointSpread":null,"OverUnder":null,"StadiumID":21,"Canceled":false,"GeoLat":null,"GeoLong":null,"ForecastTempLow":null,"ForecastTempHigh":null,"ForecastDescription":null,"ForecastWindChill":null,"ForecastWindSpeed":null,"AwayTeamMoneyLine":null,"HomeTeamMoneyLine":null,"StadiumDetails":{"StadiumID":21,"Name":"Ford Field","City":"Detroit","State":"MI","Country":"USA","Capacity":65000,"PlayingSurface":"Dome","GeoLat":42.340021,"GeoLong":-83.045777}},{"GameKey":"201610619","SeasonType":1,"Season":2016,"Week":6,"Date":"2016-10-16T13:00:00","AwayTeam":"PIT","HomeTeam":"MIA","Channel":null,"PointSpread":null,"OverUnder":null,"StadiumID":2,"Canceled":false,"GeoLat":null,"GeoLong":null,"ForecastTempLow":null,"ForecastTempHigh":null,"ForecastDescription":null,"ForecastWindChill":null,"ForecastWindSpeed":null,"AwayTeamMoneyLine":null,"HomeTeamMoneyLine":null,"StadiumDetails":{"StadiumID":2,"Name":"Sun Life Stadium","City":"Miami Gardens","State":"FL","Country":"USA","Capacity":76100,"PlayingSurface":"Grass","GeoLat":25.957740,"GeoLong":-80.238781}},{"GameKey":"201610621","SeasonType":1,"Season":2016,"Week":6,"Date":"2016-10-16T13:00:00","AwayTeam":"CIN","HomeTeam":"NE","Channel":null,"PointSpread":null,"OverUnder":null,"StadiumID":4,"Canceled":false,"GeoLat":null,"GeoLong":null,"ForecastTempLow":null,"ForecastTempHigh":null,"ForecastDescription":null,"ForecastWindChill":null,"ForecastWindSpeed":null,"AwayTeamMoneyLine":null,"HomeTeamMoneyLine":null,"StadiumDetails":{"StadiumID":4,"Name":"Gillette Stadium","City":"Foxborough","State":"MA","Country":"USA","Capacity":68756,"PlayingSurface":"Grass","GeoLat":42.090866,"GeoLong":-71.264244}},{"GameKey":"201610625","SeasonType":1,"Season":2016,"Week":6,"Date":"2016-10-16T16:05:00","AwayTeam":"KC","HomeTeam":"OAK","Channel":null,"PointSpread":null,"OverUnder":null,"StadiumID":16,"Canceled":false,"GeoLat":null,"GeoLong":null,"ForecastTempLow":null,"ForecastTempHigh":null,"ForecastDescription":null,"ForecastWindChill":null,"ForecastWindSpeed":null,"AwayTeamMoneyLine":null,"HomeTeamMoneyLine":null,"StadiumDetails":{"StadiumID":16,"Name":"O.co Coliseum","City":"Oakland","State":"CA","Country":"USA","Capacity":53200,"PlayingSurface":"Grass","GeoLat":37.751613,"GeoLong":-122.200509}},{"GameKey":"201610630","SeasonType":1,"Season":2016,"Week":6,"Date":"2016-10-16T16:25:00","AwayTeam":"ATL","HomeTeam":"SEA","Channel":null,"PointSpread":null,"OverUnder":null,"StadiumID":31,"Canceled":false,"GeoLat":null,"GeoLong":null,"ForecastTempLow":null,"ForecastTempHigh":null,"ForecastDescription":null,"ForecastWindChill":null,"ForecastWindSpeed":null,"AwayTeamMoneyLine":null,"HomeTeamMoneyLine":null,"StadiumDetails":{"StadiumID":31,"Name":"CenturyLink Field","City":"Seattle","State":"WA","Country":"USA","Capacity":67000,"PlayingSurface":"Artificial","GeoLat":47.595153,"GeoLong":-122.331625}},{"GameKey":"201610612","SeasonType":1,"Season":2016,"Week":6,"Date":"2016-10-16T16:25:00","AwayTeam":"DAL","HomeTeam":"GB","Channel":null,"PointSpread":null,"OverUnder":null,"StadiumID":22,"Canceled":false,"GeoLat":null,"GeoLong":null,"ForecastTempLow":null,"ForecastTempHigh":null,"ForecastDescription":null,"ForecastWindChill":null,"ForecastWindSpeed":null,"AwayTeamMoneyLine":null,"HomeTeamMoneyLine":null,"StadiumDetails":{"StadiumID":22,"Name":"Lambeau Field","City":"Green Bay","State":"WI","Country":"USA","Capacity":80750,"PlayingSurface":"Grass","GeoLat":44.501389,"GeoLong":-88.061944}},{"GameKey":"201610613","SeasonType":1,"Season":2016,"Week":6,"Date":"2016-10-16T20:30:00","AwayTeam":"IND","HomeTeam":"HOU","Channel":null,"PointSpread":null,"OverUnder":null,"StadiumID":11,"Canceled":false,"GeoLat":null,"GeoLong":null,"ForecastTempLow":null,"ForecastTempHigh":null,"ForecastDescription":null,"ForecastWindChill":null,"ForecastWindSpeed":null,"AwayTeamMoneyLine":null,"HomeTeamMoneyLine":null,"StadiumDetails":{"StadiumID":11,"Name":"Reliant Stadium","City":"Houston","State":"TX","Country":"USA","Capacity":71054,"PlayingSurface":"Dome","GeoLat":29.684543,"GeoLong":-95.410932}},{"GameKey":"201610601","SeasonType":1,"Season":2016,"Week":6,"Date":"2016-10-17T20:30:00","AwayTeam":"NYJ","HomeTeam":"ARI","Channel":null,"PointSpread":null,"OverUnder":null,"StadiumID":29,"Canceled":false,"GeoLat":null,"GeoLong":null,"ForecastTempLow":null,"ForecastTempHigh":null,"ForecastDescription":null,"ForecastWindChill":null,"ForecastWindSpeed":null,"AwayTeamMoneyLine":null,"HomeTeamMoneyLine":null,"StadiumDetails":{"StadiumID":29,"Name":"University of Phoenix Stadium","City":"Glendale","State":"AZ","Country":"USA","Capacity":63400,"PlayingSurface":"Dome","GeoLat":33.527558,"GeoLong":-112.263036}},{"GameKey":null,"SeasonType":1,"Season":2016,"Week":7,"Date":null,"AwayTeam":"BYE","HomeTeam":"CAR","Channel":null,"PointSpread":null,"OverUnder":null,"StadiumID":null,"Canceled":null,"GeoLat":null,"GeoLong":null,"ForecastTempLow":null,"ForecastTempHigh":null,"ForecastDescription":null,"ForecastWindChill":null,"ForecastWindSpeed":1,"AwayTeamMoneyLine":null,"HomeTeamMoneyLine":null,"StadiumDetails":null},{"GameKey":null,"SeasonType":1,"Season":2016,"Week":7,"Date":null,"AwayTeam":"BYE","HomeTeam":"DAL","Channel":null,"PointSpread":null,"OverUnder":null,"StadiumID":null,"Canceled":null,"GeoLat":null,"GeoLong":null,"ForecastTempLow":null,"ForecastTempHigh":null,"ForecastDescription":null,"ForecastWindChill":null,"ForecastWindSpeed":1,"AwayTeamMoneyLine":null,"HomeTeamMoneyLine":null,"StadiumDetails":null},{"GameKey":"201610712","SeasonType":1,"Season":2016,"Week":7,"Date":"2016-10-20T20:25:00","AwayTeam":"CHI","HomeTeam":"GB","Channel":null,"PointSpread":null,"OverUnder":null,"StadiumID":22,"Canceled":false,"GeoLat":null,"GeoLong":null,"ForecastTempLow":null,"ForecastTempHigh":null,"ForecastDescription":null,"ForecastWindChill":null,"ForecastWindSpeed":null,"AwayTeamMoneyLine":null,"HomeTeamMoneyLine":null,"StadiumDetails":{"StadiumID":22,"Name":"Lambeau Field","City":"Green Bay","State":"WI","Country":"USA","Capacity":80750,"PlayingSurface":"Grass","GeoLat":44.501389,"GeoLong":-88.061944}},{"GameKey":"201610732","SeasonType":1,"Season":2016,"Week":7,"Date":"2016-10-23T09:30:00","AwayTeam":"NYG","HomeTeam":"LA","Channel":null,"PointSpread":null,"OverUnder":null,"StadiumID":38,"Canceled":false,"GeoLat":null,"GeoLong":null,"ForecastTempLow":null,"ForecastTempHigh":null,"ForecastDescription":null,"ForecastWindChill":null,"ForecastWindSpeed":null,"AwayTeamMoneyLine":null,"HomeTeamMoneyLine":null,"StadiumDetails":{"StadiumID":38,"Name":"Los Angeles Memorial Coliseum","City":"Los Angeles","State":"CA","Country":"USA","Capacity":93607,"PlayingSurface":"Grass","GeoLat":38.632975,"GeoLong":-90.188547}},{"GameKey":"201610716","SeasonType":1,"Season":2016,"Week":7,"Date":"2016-10-23T13:00:00","AwayTeam":"NO","HomeTeam":"KC","Channel":null,"PointSpread":null,"OverUnder":null,"StadiumID":15,"Canceled":false,"GeoLat":null,"GeoLong":null,"ForecastTempLow":null,"ForecastTempHigh":null,"ForecastDescription":null,"ForecastWindChill":null,"ForecastWindSpeed":null,"AwayTeamMoneyLine":null,"HomeTeamMoneyLine":null,"StadiumDetails":{"StadiumID":15,"Name":"Arrowhead Stadium","City":"Kansas City","State":"MO","Country":"USA","Capacity":76416,"PlayingSurface":"Grass","GeoLat":39.049002,"GeoLong":-94.483864}},{"GameKey":"201610734","SeasonType":1,"Season":2016,"Week":7,"Date":"2016-10-23T13:00:00","AwayTeam":"IND","HomeTeam":"TEN","Channel":null,"PointSpread":null,"OverUnder":null,"StadiumID":12,"Canceled":false,"GeoLat":null,"GeoLong":null,"ForecastTempLow":null,"ForecastTempHigh":null,"ForecastDescription":null,"ForecastWindChill":null,"ForecastWindSpeed":null,"AwayTeamMoneyLine":null,"HomeTeamMoneyLine":null,"StadiumDetails":{"StadiumID":12,"Name":"LP Field","City":"Nashville","State":"TN","Country":"USA","Capacity":6914,"PlayingSurface":"Grass","GeoLat":36.166441,"GeoLong":-86.771253}},{"GameKey":"201610726","SeasonType":1,"Season":2016,"Week":7,"Date":"2016-10-23T13:00:00","AwayTeam":"MIN","HomeTeam":"PHI","Channel":null,"PointSpread":null,"OverUnder":null,"StadiumID":18,"Canceled":false,"GeoLat":null,"GeoLong":null,"ForecastTempLow":null,"ForecastTempHigh":null,"ForecastDescription":null,"ForecastWindChill":null,"ForecastWindSpeed":null,"AwayTeamMoneyLine":null,"HomeTeamMoneyLine":null,"StadiumDetails":{"StadiumID":18,"Name":"Lincoln Financial Field","City":"Philadelphia","State":"PA","Country":"USA","Capacity":68532,"PlayingSurface":"Grass","GeoLat":39.900771,"GeoLong":-75.167469}},{"GameKey":"201610707","SeasonType":1,"Season":2016,"Week":7,"Date":"2016-10-23T13:00:00","AwayTeam":"CLE","HomeTeam":"CIN","Channel":null,"PointSpread":null,"OverUnder":null,"StadiumID":5,"Canceled":false,"GeoLat":null,"GeoLong":null,"ForecastTempLow":null,"ForecastTempHigh":null,"ForecastDescription":null,"ForecastWindChill":null,"ForecastWindSpeed":null,"AwayTeamMoneyLine":null,"HomeTeamMoneyLine":null,"StadiumDetails":{"StadiumID":5,"Name":"Paul Brown Stadium","City":"Cincinnati","State":"OH","Country":"USA","Capacity":65535,"PlayingSurface":"Artificial","GeoLat":39.095309,"GeoLong":-84.516003}},{"GameKey":"201610711","SeasonType":1,"Season":2016,"Week":7,"Date":"2016-10-23T13:00:00","AwayTeam":"WAS","HomeTeam":"DET","Channel":null,"PointSpread":null,"OverUnder":null,"StadiumID":21,"Canceled":false,"GeoLat":null,"GeoLong":null,"ForecastTempLow":null,"ForecastTempHigh":null,"ForecastDescription":null,"ForecastWindChill":null,"ForecastWindSpeed":null,"AwayTeamMoneyLine":null,"HomeTeamMoneyLine":null,"StadiumDetails":{"StadiumID":21,"Name":"Ford Field","City":"Detroit","State":"MI","Country":"USA","Capacity":65000,"PlayingSurface":"Dome","GeoLat":42.340021,"GeoLong":-83.045777}},{"GameKey":"201610715","SeasonType":1,"Season":2016,"Week":7,"Date":"2016-10-23T13:00:00","AwayTeam":"OAK","HomeTeam":"JAX","Channel":null,"PointSpread":null,"OverUnder":null,"StadiumID":10,"Canceled":false,"GeoLat":null,"GeoLong":null,"ForecastTempLow":null,"ForecastTempHigh":null,"ForecastDescription":null,"ForecastWindChill":null,"ForecastWindSpeed":null,"AwayTeamMoneyLine":null,"HomeTeamMoneyLine":null,"StadiumDetails":{"StadiumID":10,"Name":"EverBank Field","City":"Jacksonville","State":"FL","Country":"USA","Capacity":67246,"PlayingSurface":"Artificial","GeoLat":30.323813,"GeoLong":-81.637199}},{"GameKey":"201610719","SeasonType":1,"Season":2016,"Week":7,"Date":"2016-10-23T13:00:00","AwayTeam":"BUF","HomeTeam":"MIA","Channel":null,"PointSpread":null,"OverUnder":null,"StadiumID":2,"Canceled":false,"GeoLat":null,"GeoLong":null,"ForecastTempLow":null,"ForecastTempHigh":null,"ForecastDescription":null,"ForecastWindChill":null,"ForecastWindSpeed":null,"AwayTeamMoneyLine":null,"HomeTeamMoneyLine":null,"StadiumDetails":{"StadiumID":2,"Name":"Sun Life Stadium","City":"Miami Gardens","State":"FL","Country":"USA","Capacity":76100,"PlayingSurface":"Grass","GeoLat":25.957740,"GeoLong":-80.238781}},{"GameKey":"201610724","SeasonType":1,"Season":2016,"Week":7,"Date":"2016-10-23T13:00:00","AwayTeam":"BAL","HomeTeam":"NYJ","Channel":null,"PointSpread":null,"OverUnder":null,"StadiumID":3,"Canceled":false,"GeoLat":null,"GeoLong":null,"ForecastTempLow":null,"ForecastTempHigh":null,"ForecastDescription":null,"ForecastWindChill":null,"ForecastWindSpeed":null,"AwayTeamMoneyLine":null,"HomeTeamMoneyLine":null,"StadiumDetails":{"StadiumID":3,"Name":"MetLife Stadium","City":"East Rutherford","State":"NJ","Country":"USA","Capacity":82500,"PlayingSurface":"Artificial","GeoLat":40.813611,"GeoLong":-74.074444}},{"GameKey":"201610731","SeasonType":1,"Season":2016,"Week":7,"Date":"2016-10-23T16:05:00","AwayTeam":"TB","HomeTeam":"SF","Channel":null,"PointSpread":null,"OverUnder":null,"StadiumID":37,"Canceled":false,"GeoLat":null,"GeoLong":null,"ForecastTempLow":null,"ForecastTempHigh":null,"ForecastDescription":null,"ForecastWindChill":null,"ForecastWindSpeed":null,"AwayTeamMoneyLine":null,"HomeTeamMoneyLine":null,"StadiumDetails":{"StadiumID":37,"Name":"Levi's Stadium","City":"Santa Clara","State":"CA","Country":"USA","Capacity":68500,"PlayingSurface":null,"GeoLat":37.404108,"GeoLong":-121.970274}},{"GameKey":"201610702","SeasonType":1,"Season":2016,"Week":7,"Date":"2016-10-23T16:05:00","AwayTeam":"SD","HomeTeam":"ATL","Channel":null,"PointSpread":null,"OverUnder":null,"StadiumID":25,"Canceled":false,"GeoLat":null,"GeoLong":null,"ForecastTempLow":null,"ForecastTempHigh":null,"ForecastDescription":null,"ForecastWindChill":null,"ForecastWindSpeed":null,"AwayTeamMoneyLine":null,"HomeTeamMoneyLine":null,"StadiumDetails":{"StadiumID":25,"Name":"Georgia Dome","City":"Atlanta","State":"GA","Country":"USA","Capacity":74228,"PlayingSurface":"Dome","GeoLat":33.757614,"GeoLong":-84.400972}},{"GameKey":"201610728","SeasonType":1,"Season":2016,"Week":7,"Date":"2016-10-23T16:25:00","AwayTeam":"NE","HomeTeam":"PIT","Channel":null,"PointSpread":null,"OverUnder":null,"StadiumID":8,"Canceled":false,"GeoLat":null,"GeoLong":null,"ForecastTempLow":null,"ForecastTempHigh":null,"ForecastDescription":null,"ForecastWindChill":null,"ForecastWindSpeed":null,"AwayTeamMoneyLine":null,"HomeTeamMoneyLine":null,"StadiumDetails":{"StadiumID":8,"Name":"Heinz Field","City":"Pittsburgh","State":"PA","Country":"USA","Capacity":65050,"PlayingSurface":"Grass","GeoLat":40.446751,"GeoLong":-80.015707}},{"GameKey":"201610701","SeasonType":1,"Season":2016,"Week":7,"Date":"2016-10-23T20:30:00","AwayTeam":"SEA","HomeTeam":"ARI","Channel":null,"PointSpread":null,"OverUnder":null,"StadiumID":29,"Canceled":false,"GeoLat":null,"GeoLong":null,"ForecastTempLow":null,"ForecastTempHigh":null,"ForecastDescription":null,"ForecastWindChill":null,"ForecastWindSpeed":null,"AwayTeamMoneyLine":null,"HomeTeamMoneyLine":null,"StadiumDetails":{"StadiumID":29,"Name":"University of Phoenix Stadium","City":"Glendale","State":"AZ","Country":"USA","Capacity":63400,"PlayingSurface":"Dome","GeoLat":33.527558,"GeoLong":-112.263036}},{"GameKey":"201610710","SeasonType":1,"Season":2016,"Week":7,"Date":"2016-10-24T20:30:00","AwayTeam":"HOU","HomeTeam":"DEN","Channel":null,"PointSpread":null,"OverUnder":null,"StadiumID":13,"Canceled":false,"GeoLat":null,"GeoLong":null,"ForecastTempLow":null,"ForecastTempHigh":null,"ForecastDescription":null,"ForecastWindChill":null,"ForecastWindSpeed":null,"AwayTeamMoneyLine":null,"HomeTeamMoneyLine":null,"StadiumDetails":{"StadiumID":13,"Name":"Sports Authority Field at Mile High","City":"Denver","State":"CO","Country":"USA","Capacity":76125,"PlayingSurface":"Grass","GeoLat":39.743936,"GeoLong":-105.020097}},{"GameKey":null,"SeasonType":1,"Season":2016,"Week":8,"Date":null,"AwayTeam":"BYE","HomeTeam":"BAL","Channel":null,"PointSpread":null,"OverUnder":null,"StadiumID":null,"Canceled":null,"GeoLat":null,"GeoLong":null,"ForecastTempLow":null,"ForecastTempHigh":null,"ForecastDescription":null,"ForecastWindChill":null,"ForecastWindSpeed":1,"AwayTeamMoneyLine":null,"HomeTeamMoneyLine":null,"StadiumDetails":null},{"GameKey":null,"SeasonType":1,"Season":2016,"Week":8,"Date":null,"AwayTeam":"BYE","HomeTeam":"LA","Channel":null,"PointSpread":null,"OverUnder":null,"StadiumID":null,"Canceled":null,"GeoLat":null,"GeoLong":null,"ForecastTempLow":null,"ForecastTempHigh":null,"ForecastDescription":null,"ForecastWindChill":null,"ForecastWindSpeed":1,"AwayTeamMoneyLine":null,"HomeTeamMoneyLine":null,"StadiumDetails":null},{"GameKey":null,"SeasonType":1,"Season":2016,"Week":8,"Date":null,"AwayTeam":"BYE","HomeTeam":"MIA","Channel":null,"PointSpread":null,"OverUnder":null,"StadiumID":null,"Canceled":null,"GeoLat":null,"GeoLong":null,"ForecastTempLow":null,"ForecastTempHigh":null,"ForecastDescription":null,"ForecastWindChill":null,"ForecastWindSpeed":1,"AwayTeamMoneyLine":null,"HomeTeamMoneyLine":null,"StadiumDetails":null},{"GameKey":null,"SeasonType":1,"Season":2016,"Week":8,"Date":null,"AwayTeam":"BYE","HomeTeam":"NYG","Channel":null,"PointSpread":null,"OverUnder":null,"StadiumID":null,"Canceled":null,"GeoLat":null,"GeoLong":null,"ForecastTempLow":null,"ForecastTempHigh":null,"ForecastDescription":null,"ForecastWindChill":null,"ForecastWindSpeed":1,"AwayTeamMoneyLine":null,"HomeTeamMoneyLine":null,"StadiumDetails":null},{"GameKey":null,"SeasonType":1,"Season":2016,"Week":8,"Date":null,"AwayTeam":"BYE","HomeTeam":"PIT","Channel":null,"PointSpread":null,"OverUnder":null,"StadiumID":null,"Canceled":null,"GeoLat":null,"GeoLong":null,"ForecastTempLow":null,"ForecastTempHigh":null,"ForecastDescription":null,"ForecastWindChill":null,"ForecastWindSpeed":1,"AwayTeamMoneyLine":null,"HomeTeamMoneyLine":null,"StadiumDetails":null},{"GameKey":null,"SeasonType":1,"Season":2016,"Week":8,"Date":null,"AwayTeam":"BYE","HomeTeam":"SF","Channel":null,"PointSpread":null,"OverUnder":null,"StadiumID":null,"Canceled":null,"GeoLat":null,"GeoLong":null,"ForecastTempLow":null,"ForecastTempHigh":null,"ForecastDescription":null,"ForecastWindChill":null,"ForecastWindSpeed":1,"AwayTeamMoneyLine":null,"HomeTeamMoneyLine":null,"StadiumDetails":null},{"GameKey":"201610834","SeasonType":1,"Season":2016,"Week":8,"Date":"2016-10-27T20:25:00","AwayTeam":"JAX","HomeTeam":"TEN","Channel":null,"PointSpread":null,"OverUnder":null,"StadiumID":12,"Canceled":false,"GeoLat":null,"GeoLong":null,"ForecastTempLow":null,"ForecastTempHigh":null,"ForecastDescription":null,"ForecastWindChill":null,"ForecastWindSpeed":null,"AwayTeamMoneyLine":null,"HomeTeamMoneyLine":null,"StadiumDetails":{"StadiumID":12,"Name":"LP Field","City":"Nashville","State":"TN","Country":"USA","Capacity":6914,"PlayingSurface":"Grass","GeoLat":36.166441,"GeoLong":-86.771253}},{"GameKey":"201610807","SeasonType":1,"Season":2016,"Week":8,"Date":"2016-10-30T09:30:00","AwayTeam":"WAS","HomeTeam":"CIN","Channel":null,"PointSpread":null,"OverUnder":null,"StadiumID":5,"Canceled":false,"GeoLat":null,"GeoLong":null,"ForecastTempLow":null,"ForecastTempHigh":null,"ForecastDescription":null,"ForecastWindChill":null,"ForecastWindSpeed":null,"AwayTeamMoneyLine":null,"HomeTeamMoneyLine":null,"StadiumDetails":{"StadiumID":5,"Name":"Paul Brown Stadium","City":"Cincinnati","State":"OH","Country":"USA","Capacity":65535,"PlayingSurface":"Artificial","GeoLat":39.095309,"GeoLong":-84.516003}},{"GameKey":"201610814","SeasonType":1,"Season":2016,"Week":8,"Date":"2016-10-30T13:00:00","AwayTeam":"KC","HomeTeam":"IND","Channel":null,"PointSpread":null,"OverUnder":null,"StadiumID":9,"Canceled":false,"GeoLat":null,"GeoLong":null,"ForecastTempLow":null,"ForecastTempHigh":null,"ForecastDescription":null,"ForecastWindChill":null,"ForecastWindSpeed":null,"AwayTeamMoneyLine":null,"HomeTeamMoneyLine":null,"StadiumDetails":{"StadiumID":9,"Name":"Lucas Oil Stadium","City":"Indianapolis","State":"IN","Country":"USA","Capacity":67000,"PlayingSurface":"Dome","GeoLat":39.760056,"GeoLong":-86.163806}},{"GameKey":"201610833","SeasonType":1,"Season":2016,"Week":8,"Date":"2016-10-30T13:00:00","AwayTeam":"OAK","HomeTeam":"TB","Channel":null,"PointSpread":null,"OverUnder":null,"StadiumID":24,"Canceled":false,"GeoLat":null,"GeoLong":null,"ForecastTempLow":null,"ForecastTempHigh":null,"ForecastDescription":null,"ForecastWindChill":null,"ForecastWindSpeed":null,"AwayTeamMoneyLine":null,"HomeTeamMoneyLine":null,"StadiumDetails":{"StadiumID":24,"Name":"Raymond James Stadium","City":"Tampa Bay","State":"FL","Country":"USA","Capacity":65890,"PlayingSurface":"Grass","GeoLat":27.975967,"GeoLong":-82.503350}},{"GameKey":"201610822","SeasonType":1,"Season":2016,"Week":8,"Date":"2016-10-30T13:00:00","AwayTeam":"SEA","HomeTeam":"NO","Channel":null,"PointSpread":null,"OverUnder":null,"StadiumID":27,"Canceled":false,"GeoLat":null,"GeoLong":null,"ForecastTempLow":null,"ForecastTempHigh":null,"ForecastDescription":null,"ForecastWindChill":null,"ForecastWindSpeed":null,"AwayTeamMoneyLine":null,"HomeTeamMoneyLine":null,"StadiumDetails":{"StadiumID":27,"Name":"Mercedes-Benz Superdome","City":"New Orleans","State":"LA","Country":"USA","Capacity":73208,"PlayingSurface":"Dome","GeoLat":29.950931,"GeoLong":-90.081364}},{"GameKey":"201610813","SeasonType":1,"Season":2016,"Week":8,"Date":"2016-10-30T13:00:00","AwayTeam":"DET","HomeTeam":"HOU","Channel":null,"PointSpread":null,"OverUnder":null,"StadiumID":11,"Canceled":false,"GeoLat":null,"GeoLong":null,"ForecastTempLow":null,"ForecastTempHigh":null,"ForecastDescription":null,"ForecastWindChill":null,"ForecastWindSpeed":null,"AwayTeamMoneyLine":null,"HomeTeamMoneyLine":null,"StadiumDetails":{"StadiumID":11,"Name":"Reliant Stadium","City":"Houston","State":"TX","Country":"USA","Capacity":71054,"PlayingSurface":"Dome","GeoLat":29.684543,"GeoLong":-95.410932}},{"GameKey":"201610808","SeasonType":1,"Season":2016,"Week":8,"Date":"2016-10-30T13:00:00","AwayTeam":"NYJ","HomeTeam":"CLE","Channel":null,"PointSpread":null,"OverUnder":null,"StadiumID":6,"Canceled":false,"GeoLat":null,"GeoLong":null,"ForecastTempLow":null,"ForecastTempHigh":null,"ForecastDescription":null,"ForecastWindChill":null,"ForecastWindSpeed":null,"AwayTeamMoneyLine":null,"HomeTeamMoneyLine":null,"StadiumDetails":{"StadiumID":6,"Name":"FirstEnergy Stadium","City":"Cleveland","State":"OH","Country":"USA","Capacity":71516,"PlayingSurface":"Artificial","GeoLat":41.505885,"GeoLong":-81.699458}},{"GameKey":"201610802","SeasonType":1,"Season":2016,"Week":8,"Date":"2016-10-30T13:00:00","AwayTeam":"GB","HomeTeam":"ATL","Channel":null,"PointSpread":null,"OverUnder":null,"StadiumID":25,"Canceled":false,"GeoLat":null,"GeoLong":null,"ForecastTempLow":null,"ForecastTempHigh":null,"ForecastDescription":null,"ForecastWindChill":null,"ForecastWindSpeed":null,"AwayTeamMoneyLine":null,"HomeTeamMoneyLine":null,"StadiumDetails":{"StadiumID":25,"Name":"Georgia Dome","City":"Atlanta","State":"GA","Country":"USA","Capacity":74228,"PlayingSurface":"Dome","GeoLat":33.757614,"GeoLong":-84.400972}},{"GameKey":"201610804","SeasonType":1,"Season":2016,"Week":8,"Date":"2016-10-30T13:00:00","AwayTeam":"NE","HomeTeam":"BUF","Channel":null,"PointSpread":null,"OverUnder":null,"StadiumID":1,"Canceled":false,"GeoLat":null,"GeoLong":null,"ForecastTempLow":null,"ForecastTempHigh":null,"ForecastDescription":null,"ForecastWindChill":null,"ForecastWindSpeed":null,"AwayTeamMoneyLine":null,"HomeTeamMoneyLine":null,"StadiumDetails":{"StadiumID":1,"Name":"Ralph Wilson Stadium","City":"Orchard Park","State":"NY","Country":"USA","Capacity":73079,"PlayingSurface":"Artificial","GeoLat":42.773758,"GeoLong":-78.786837}},{"GameKey":"201610810","SeasonType":1,"Season":2016,"Week":8,"Date":"2016-10-30T16:05:00","AwayTeam":"SD","HomeTeam":"DEN","Channel":null,"PointSpread":null,"OverUnder":null,"StadiumID":13,"Canceled":false,"GeoLat":null,"GeoLong":null,"ForecastTempLow":null,"ForecastTempHigh":null,"ForecastDescription":null,"ForecastWindChill":null,"ForecastWindSpeed":null,"AwayTeamMoneyLine":null,"HomeTeamMoneyLine":null,"StadiumDetails":{"StadiumID":13,"Name":"Sports Authority Field at Mile High","City":"Denver","State":"CO","Country":"USA","Capacity":76125,"PlayingSurface":"Grass","GeoLat":39.743936,"GeoLong":-105.020097}},{"GameKey":"201610805","SeasonType":1,"Season":2016,"Week":8,"Date":"2016-10-30T16:25:00","AwayTeam":"ARI","HomeTeam":"CAR","Channel":null,"PointSpread":null,"OverUnder":null,"StadiumID":26,"Canceled":false,"GeoLat":null,"GeoLong":null,"ForecastTempLow":null,"ForecastTempHigh":null,"ForecastDescription":null,"ForecastWindChill":null,"ForecastWindSpeed":null,"AwayTeamMoneyLine":null,"HomeTeamMoneyLine":null,"StadiumDetails":{"StadiumID":26,"Name":"Bank of America Stadium","City":"Charlotte","State":"NC","Country":"USA","Capacity":73778,"PlayingSurface":"Grass","GeoLat":35.225808,"GeoLong":-80.852861}},{"GameKey":"201610809","SeasonType":1,"Season":2016,"Week":8,"Date":"2016-10-30T20:30:00","AwayTeam":"PHI","HomeTeam":"DAL","Channel":null,"PointSpread":null,"OverUnder":null,"StadiumID":17,"Canceled":false,"GeoLat":null,"GeoLong":null,"ForecastTempLow":null,"ForecastTempHigh":null,"ForecastDescription":null,"ForecastWindChill":null,"ForecastWindSpeed":null,"AwayTeamMoneyLine":null,"HomeTeamMoneyLine":null,"StadiumDetails":{"StadiumID":17,"Name":"AT&T Stadium","City":"Arlington","State":"TX","Country":"USA","Capacity":80000,"PlayingSurface":"Dome","GeoLat":32.747778,"GeoLong":-97.092778}},{"GameKey":"201610806","SeasonType":1,"Season":2016,"Week":8,"Date":"2016-10-31T20:30:00","AwayTeam":"MIN","HomeTeam":"CHI","Channel":null,"PointSpread":null,"OverUnder":null,"StadiumID":20,"Canceled":false,"GeoLat":null,"GeoLong":null,"ForecastTempLow":null,"ForecastTempHigh":null,"ForecastDescription":null,"ForecastWindChill":null,"ForecastWindSpeed":null,"AwayTeamMoneyLine":null,"HomeTeamMoneyLine":null,"StadiumDetails":{"StadiumID":20,"Name":"Soldier Field","City":"Chicago","State":"IL","Country":"USA","Capacity":61500,"PlayingSurface":"Grass","GeoLat":41.862320,"GeoLong":-87.616699}},{"GameKey":null,"SeasonType":1,"Season":2016,"Week":9,"Date":null,"AwayTeam":"BYE","HomeTeam":"ARI","Channel":null,"PointSpread":null,"OverUnder":null,"StadiumID":null,"Canceled":null,"GeoLat":null,"GeoLong":null,"ForecastTempLow":null,"ForecastTempHigh":null,"ForecastDescription":null,"ForecastWindChill":null,"ForecastWindSpeed":1,"AwayTeamMoneyLine":null,"HomeTeamMoneyLine":null,"StadiumDetails":null},{"GameKey":null,"SeasonType":1,"Season":2016,"Week":9,"Date":null,"AwayTeam":"BYE","HomeTeam":"CHI","Channel":null,"PointSpread":null,"OverUnder":null,"StadiumID":null,"Canceled":null,"GeoLat":null,"GeoLong":null,"ForecastTempLow":null,"ForecastTempHigh":null,"ForecastDescription":null,"ForecastWindChill":null,"ForecastWindSpeed":1,"AwayTeamMoneyLine":null,"HomeTeamMoneyLine":null,"StadiumDetails":null},{"GameKey":null,"SeasonType":1,"Season":2016,"Week":9,"Date":null,"AwayTeam":"BYE","HomeTeam":"CIN","Channel":null,"PointSpread":null,"OverUnder":null,"StadiumID":null,"Canceled":null,"GeoLat":null,"GeoLong":null,"ForecastTempLow":null,"ForecastTempHigh":null,"ForecastDescription":null,"ForecastWindChill":null,"ForecastWindSpeed":1,"AwayTeamMoneyLine":null,"HomeTeamMoneyLine":null,"StadiumDetails":null},{"GameKey":null,"SeasonType":1,"Season":2016,"Week":9,"Date":null,"AwayTeam":"BYE","HomeTeam":"HOU","Channel":null,"PointSpread":null,"OverUnder":null,"StadiumID":null,"Canceled":null,"GeoLat":null,"GeoLong":null,"ForecastTempLow":null,"ForecastTempHigh":null,"ForecastDescription":null,"ForecastWindChill":null,"ForecastWindSpeed":1,"AwayTeamMoneyLine":null,"HomeTeamMoneyLine":null,"StadiumDetails":null},{"GameKey":null,"SeasonType":1,"Season":2016,"Week":9,"Date":null,"AwayTeam":"BYE","HomeTeam":"NE","Channel":null,"PointSpread":null,"OverUnder":null,"StadiumID":null,"Canceled":null,"GeoLat":null,"GeoLong":null,"ForecastTempLow":null,"ForecastTempHigh":null,"ForecastDescription":null,"ForecastWindChill":null,"ForecastWindSpeed":1,"AwayTeamMoneyLine":null,"HomeTeamMoneyLine":null,"StadiumDetails":null},{"GameKey":null,"SeasonType":1,"Season":2016,"Week":9,"Date":null,"AwayTeam":"BYE","HomeTeam":"WAS","Channel":null,"PointSpread":null,"OverUnder":null,"StadiumID":null,"Canceled":null,"GeoLat":null,"GeoLong":null,"ForecastTempLow":null,"ForecastTempHigh":null,"ForecastDescription":null,"ForecastWindChill":null,"ForecastWindSpeed":1,"AwayTeamMoneyLine":null,"HomeTeamMoneyLine":null,"StadiumDetails":null},{"GameKey":"201610933","SeasonType":1,"Season":2016,"Week":9,"Date":"2016-11-03T20:25:00","AwayTeam":"ATL","HomeTeam":"TB","Channel":null,"PointSpread":null,"OverUnder":null,"StadiumID":24,"Canceled":false,"GeoLat":null,"GeoLong":null,"ForecastTempLow":null,"ForecastTempHigh":null,"ForecastDescription":null,"ForecastWindChill":null,"ForecastWindSpeed":null,"AwayTeamMoneyLine":null,"HomeTeamMoneyLine":null,"StadiumDetails":{"StadiumID":24,"Name":"Raymond James Stadium","City":"Tampa Bay","State":"FL","Country":"USA","Capacity":65890,"PlayingSurface":"Grass","GeoLat":27.975967,"GeoLong":-82.503350}},{"GameKey":"201610903","SeasonType":1,"Season":2016,"Week":9,"Date":"2016-11-06T13:00:00","AwayTeam":"PIT","HomeTeam":"BAL","Channel":null,"PointSpread":null,"OverUnder":null,"StadiumID":7,"Canceled":false,"GeoLat":null,"GeoLong":null,"ForecastTempLow":null,"ForecastTempHigh":null,"ForecastDescription":null,"ForecastWindChill":null,"ForecastWindSpeed":null,"AwayTeamMoneyLine":null,"HomeTeamMoneyLine":null,"StadiumDetails":{"StadiumID":7,"Name":"M&T Bank Stadium","City":"Baltimore","State":"MD","Country":"USA","Capacity":71008,"PlayingSurface":"Artificial","GeoLat":39.277985,"GeoLong":-76.622788}},{"GameKey":"201610908","SeasonType":1,"Season":2016,"Week":9,"Date":"2016-11-06T13:00:00","AwayTeam":"DAL","HomeTeam":"CLE","Channel":null,"PointSpread":null,"OverUnder":null,"StadiumID":6,"Canceled":false,"GeoLat":null,"GeoLong":null,"ForecastTempLow":null,"ForecastTempHigh":null,"ForecastDescription":null,"ForecastWindChill":null,"ForecastWindSpeed":null,"AwayTeamMoneyLine":null,"HomeTeamMoneyLine":null,"StadiumDetails":{"StadiumID":6,"Name":"FirstEnergy Stadium","City":"Cleveland","State":"OH","Country":"USA","Capacity":71516,"PlayingSurface":"Artificial","GeoLat":41.505885,"GeoLong":-81.699458}},{"GameKey":"201610916","SeasonType":1,"Season":2016,"Week":9,"Date":"2016-11-06T13:00:00","AwayTeam":"JAX","HomeTeam":"KC","Channel":null,"PointSpread":null,"OverUnder":null,"StadiumID":15,"Canceled":false,"GeoLat":null,"GeoLong":null,"ForecastTempLow":null,"ForecastTempHigh":null,"ForecastDescription":null,"ForecastWindChill":null,"ForecastWindSpeed":null,"AwayTeamMoneyLine":null,"HomeTeamMoneyLine":null,"StadiumDetails":{"StadiumID":15,"Name":"Arrowhead Stadium","City":"Kansas City","State":"MO","Country":"USA","Capacity":76416,"PlayingSurface":"Grass","GeoLat":39.049002,"GeoLong":-94.483864}},{"GameKey":"201610919","SeasonType":1,"Season":2016,"Week":9,"Date":"2016-11-06T13:00:00","AwayTeam":"NYJ","HomeTeam":"MIA","Channel":null,"PointSpread":null,"OverUnder":null,"StadiumID":2,"Canceled":false,"GeoLat":null,"GeoLong":null,"ForecastTempLow":null,"ForecastTempHigh":null,"ForecastDescription":null,"ForecastWindChill":null,"ForecastWindSpeed":null,"AwayTeamMoneyLine":null,"HomeTeamMoneyLine":null,"StadiumDetails":{"StadiumID":2,"Name":"Sun Life Stadium","City":"Miami Gardens","State":"FL","Country":"USA","Capacity":76100,"PlayingSurface":"Grass","GeoLat":25.957740,"GeoLong":-80.238781}},{"GameKey":"201610923","SeasonType":1,"Season":2016,"Week":9,"Date":"2016-11-06T13:00:00","AwayTeam":"PHI","HomeTeam":"NYG","Channel":null,"PointSpread":null,"OverUnder":null,"StadiumID":3,"Canceled":false,"GeoLat":null,"GeoLong":null,"ForecastTempLow":null,"ForecastTempHigh":null,"ForecastDescription":null,"ForecastWindChill":null,"ForecastWindSpeed":null,"AwayTeamMoneyLine":null,"HomeTeamMoneyLine":null,"StadiumDetails":{"StadiumID":3,"Name":"MetLife Stadium","City":"East Rutherford","State":"NJ","Country":"USA","Capacity":82500,"PlayingSurface":"Artificial","GeoLat":40.813611,"GeoLong":-74.074444}},{"GameKey":"201610920","SeasonType":1,"Season":2016,"Week":9,"Date":"2016-11-06T13:00:00","AwayTeam":"DET","HomeTeam":"MIN","Channel":null,"PointSpread":null,"OverUnder":null,"StadiumID":36,"Canceled":false,"GeoLat":null,"GeoLong":null,"ForecastTempLow":null,"ForecastTempHigh":null,"ForecastDescription":null,"ForecastWindChill":null,"ForecastWindSpeed":null,"AwayTeamMoneyLine":null,"HomeTeamMoneyLine":null,"StadiumDetails":{"StadiumID":36,"Name":"TCF Bank Stadium","City":"Minneapolis","State":"MN","Country":"USA","Capacity":50805,"PlayingSurface":null,"GeoLat":44.976000,"GeoLong":-93.225000}},{"GameKey":"201610932","SeasonType":1,"Season":2016,"Week":9,"Date":"2016-11-06T16:05:00","AwayTeam":"CAR","HomeTeam":"LA","Channel":null,"PointSpread":null,"OverUnder":null,"StadiumID":38,"Canceled":false,"GeoLat":null,"GeoLong":null,"ForecastTempLow":null,"ForecastTempHigh":null,"ForecastDescription":null,"ForecastWindChill":null,"ForecastWindSpeed":null,"AwayTeamMoneyLine":null,"HomeTeamMoneyLine":null,"StadiumDetails":{"StadiumID":38,"Name":"Los Angeles Memorial Coliseum","City":"Los Angeles","State":"CA","Country":"USA","Capacity":93607,"PlayingSurface":"Grass","GeoLat":38.632975,"GeoLong":-90.188547}},{"GameKey":"201610931","SeasonType":1,"Season":2016,"Week":9,"Date":"2016-11-06T16:05:00","AwayTeam":"NO","HomeTeam":"SF","Channel":null,"PointSpread":null,"OverUnder":null,"StadiumID":37,"Canceled":false,"GeoLat":null,"GeoLong":null,"ForecastTempLow":null,"ForecastTempHigh":null,"ForecastDescription":null,"ForecastWindChill":null,"ForecastWindSpeed":null,"AwayTeamMoneyLine":null,"HomeTeamMoneyLine":null,"StadiumDetails":{"StadiumID":37,"Name":"Levi's Stadium","City":"Santa Clara","State":"CA","Country":"USA","Capacity":68500,"PlayingSurface":null,"GeoLat":37.404108,"GeoLong":-121.970274}},{"GameKey":"201610929","SeasonType":1,"Season":2016,"Week":9,"Date":"2016-11-06T16:25:00","AwayTeam":"TEN","HomeTeam":"SD","Channel":null,"PointSpread":null,"OverUnder":null,"StadiumID":14,"Canceled":false,"GeoLat":null,"GeoLong":null,"ForecastTempLow":null,"ForecastTempHigh":null,"ForecastDescription":null,"ForecastWindChill":null,"ForecastWindSpeed":null,"AwayTeamMoneyLine":null,"HomeTeamMoneyLine":null,"StadiumDetails":{"StadiumID":14,"Name":"Qualcomm Stadium","City":"San Diego","State":"CA","Country":"USA","Capacity":70561,"PlayingSurface":"Grass","GeoLat":32.783188,"GeoLong":-117.119439}},{"GameKey":"201610912","SeasonType":1,"Season":2016,"Week":9,"Date":"2016-11-06T16:25:00","AwayTeam":"IND","HomeTeam":"GB","Channel":null,"PointSpread":null,"OverUnder":null,"StadiumID":22,"Canceled":false,"GeoLat":null,"GeoLong":null,"ForecastTempLow":null,"ForecastTempHigh":null,"ForecastDescription":null,"ForecastWindChill":null,"ForecastWindSpeed":null,"AwayTeamMoneyLine":null,"HomeTeamMoneyLine":null,"StadiumDetails":{"StadiumID":22,"Name":"Lambeau Field","City":"Green Bay","State":"WI","Country":"USA","Capacity":80750,"PlayingSurface":"Grass","GeoLat":44.501389,"GeoLong":-88.061944}},{"GameKey":"201610925","SeasonType":1,"Season":2016,"Week":9,"Date":"2016-11-06T20:30:00","AwayTeam":"DEN","HomeTeam":"OAK","Channel":null,"PointSpread":null,"OverUnder":null,"StadiumID":16,"Canceled":false,"GeoLat":null,"GeoLong":null,"ForecastTempLow":null,"ForecastTempHigh":null,"ForecastDescription":null,"ForecastWindChill":null,"ForecastWindSpeed":null,"AwayTeamMoneyLine":null,"HomeTeamMoneyLine":null,"StadiumDetails":{"StadiumID":16,"Name":"O.co Coliseum","City":"Oakland","State":"CA","Country":"USA","Capacity":53200,"PlayingSurface":"Grass","GeoLat":37.751613,"GeoLong":-122.200509}},{"GameKey":"201610930","SeasonType":1,"Season":2016,"Week":9,"Date":"2016-11-07T20:30:00","AwayTeam":"BUF","HomeTeam":"SEA","Channel":null,"PointSpread":null,"OverUnder":null,"StadiumID":31,"Canceled":false,"GeoLat":null,"GeoLong":null,"ForecastTempLow":null,"ForecastTempHigh":null,"ForecastDescription":null,"ForecastWindChill":null,"ForecastWindSpeed":null,"AwayTeamMoneyLine":null,"HomeTeamMoneyLine":null,"StadiumDetails":{"StadiumID":31,"Name":"CenturyLink Field","City":"Seattle","State":"WA","Country":"USA","Capacity":67000,"PlayingSurface":"Artificial","GeoLat":47.595153,"GeoLong":-122.331625}},{"GameKey":null,"SeasonType":1,"Season":2016,"Week":10,"Date":null,"AwayTeam":"BYE","HomeTeam":"BUF","Channel":null,"PointSpread":null,"OverUnder":null,"StadiumID":null,"Canceled":null,"GeoLat":null,"GeoLong":null,"ForecastTempLow":null,"ForecastTempHigh":null,"ForecastDescription":null,"ForecastWindChill":null,"ForecastWindSpeed":1,"AwayTeamMoneyLine":null,"HomeTeamMoneyLine":null,"StadiumDetails":null},{"GameKey":null,"SeasonType":1,"Season":2016,"Week":10,"Date":null,"AwayTeam":"BYE","HomeTeam":"DET","Channel":null,"PointSpread":null,"OverUnder":null,"StadiumID":null,"Canceled":null,"GeoLat":null,"GeoLong":null,"ForecastTempLow":null,"ForecastTempHigh":null,"ForecastDescription":null,"ForecastWindChill":null,"ForecastWindSpeed":1,"AwayTeamMoneyLine":null,"HomeTeamMoneyLine":null,"StadiumDetails":null},{"GameKey":null,"SeasonType":1,"Season":2016,"Week":10,"Date":null,"AwayTeam":"BYE","HomeTeam":"IND","Channel":null,"PointSpread":null,"OverUnder":null,"StadiumID":null,"Canceled":null,"GeoLat":null,"GeoLong":null,"ForecastTempLow":null,"ForecastTempHigh":null,"ForecastDescription":null,"ForecastWindChill":null,"ForecastWindSpeed":1,"AwayTeamMoneyLine":null,"HomeTeamMoneyLine":null,"StadiumDetails":null},{"GameKey":null,"SeasonType":1,"Season":2016,"Week":10,"Date":null,"AwayTeam":"BYE","HomeTeam":"OAK","Channel":null,"PointSpread":null,"OverUnder":null,"StadiumID":null,"Canceled":null,"GeoLat":null,"GeoLong":null,"ForecastTempLow":null,"ForecastTempHigh":null,"ForecastDescription":null,"ForecastWindChill":null,"ForecastWindSpeed":1,"AwayTeamMoneyLine":null,"HomeTeamMoneyLine":null,"StadiumDetails":null},{"GameKey":"201611003","SeasonType":1,"Season":2016,"Week":10,"Date":"2016-11-10T20:25:00","AwayTeam":"CLE","HomeTeam":"BAL","Channel":null,"PointSpread":null,"OverUnder":null,"StadiumID":7,"Canceled":false,"GeoLat":null,"GeoLong":null,"ForecastTempLow":null,"ForecastTempHigh":null,"ForecastDescription":null,"ForecastWindChill":null,"ForecastWindSpeed":null,"AwayTeamMoneyLine":null,"HomeTeamMoneyLine":null,"StadiumDetails":{"StadiumID":7,"Name":"M&T Bank Stadium","City":"Baltimore","State":"MD","Country":"USA","Capacity":71008,"PlayingSurface":"Artificial","GeoLat":39.277985,"GeoLong":-76.622788}},{"GameKey":"201611034","SeasonType":1,"Season":2016,"Week":10,"Date":"2016-11-13T13:00:00","AwayTeam":"GB","HomeTeam":"TEN","Channel":null,"PointSpread":null,"OverUnder":null,"StadiumID":12,"Canceled":false,"GeoLat":null,"GeoLong":null,"ForecastTempLow":null,"ForecastTempHigh":null,"ForecastDescription":null,"ForecastWindChill":null,"ForecastWindSpeed":null,"AwayTeamMoneyLine":null,"HomeTeamMoneyLine":null,"StadiumDetails":{"StadiumID":12,"Name":"LP Field","City":"Nashville","State":"TN","Country":"USA","Capacity":6914,"PlayingSurface":"Grass","GeoLat":36.166441,"GeoLong":-86.771253}},{"GameKey":"201611035","SeasonType":1,"Season":2016,"Week":10,"Date":"2016-11-13T13:00:00","AwayTeam":"MIN","HomeTeam":"WAS","Channel":null,"PointSpread":null,"OverUnder":null,"StadiumID":19,"Canceled":false,"GeoLat":null,"GeoLong":null,"ForecastTempLow":null,"ForecastTempHigh":null,"ForecastDescription":null,"ForecastWindChill":null,"ForecastWindSpeed":null,"AwayTeamMoneyLine":null,"HomeTeamMoneyLine":null,"StadiumDetails":{"StadiumID":19,"Name":"FedEx Field","City":"Landover","State":"MD","Country":"USA","Capacity":85000,"PlayingSurface":"Grass","GeoLat":38.907652,"GeoLong":-76.864479}},{"GameKey":"201611033","SeasonType":1,"Season":2016,"Week":10,"Date":"2016-11-13T13:00:00","AwayTeam":"CHI","HomeTeam":"TB","Channel":null,"PointSpread":null,"OverUnder":null,"StadiumID":24,"Canceled":false,"GeoLat":null,"GeoLong":null,"ForecastTempLow":null,"ForecastTempHigh":null,"ForecastDescription":null,"ForecastWindChill":null,"ForecastWindSpeed":null,"AwayTeamMoneyLine":null,"HomeTeamMoneyLine":null,"StadiumDetails":{"StadiumID":24,"Name":"Raymond James Stadium","City":"Tampa Bay","State":"FL","Country":"USA","Capacity":65890,"PlayingSurface":"Grass","GeoLat":27.975967,"GeoLong":-82.503350}},{"GameKey":"201611005","SeasonType":1,"Season":2016,"Week":10,"Date":"2016-11-13T13:00:00","AwayTeam":"KC","HomeTeam":"CAR","Channel":null,"PointSpread":null,"OverUnder":null,"StadiumID":26,"Canceled":false,"GeoLat":null,"GeoLong":null,"ForecastTempLow":null,"ForecastTempHigh":null,"ForecastDescription":null,"ForecastWindChill":null,"ForecastWindSpeed":null,"AwayTeamMoneyLine":null,"HomeTeamMoneyLine":null,"StadiumDetails":{"StadiumID":26,"Name":"Bank of America Stadium","City":"Charlotte","State":"NC","Country":"USA","Capacity":73778,"PlayingSurface":"Grass","GeoLat":35.225808,"GeoLong":-80.852861}},{"GameKey":"201611026","SeasonType":1,"Season":2016,"Week":10,"Date":"2016-11-13T13:00:00","AwayTeam":"ATL","HomeTeam":"PHI","Channel":null,"PointSpread":null,"OverUnder":null,"StadiumID":18,"Canceled":false,"GeoLat":null,"GeoLong":null,"ForecastTempLow":null,"ForecastTempHigh":null,"ForecastDescription":null,"ForecastWindChill":null,"ForecastWindSpeed":null,"AwayTeamMoneyLine":null,"HomeTeamMoneyLine":null,"StadiumDetails":{"StadiumID":18,"Name":"Lincoln Financial Field","City":"Philadelphia","State":"PA","Country":"USA","Capacity":68532,"PlayingSurface":"Grass","GeoLat":39.900771,"GeoLong":-75.167469}},{"GameKey":"201611024","SeasonType":1,"Season":2016,"Week":10,"Date":"2016-11-13T13:00:00","AwayTeam":"LA","HomeTeam":"NYJ","Channel":null,"PointSpread":null,"OverUnder":null,"StadiumID":3,"Canceled":false,"GeoLat":null,"GeoLong":null,"ForecastTempLow":null,"ForecastTempHigh":null,"ForecastDescription":null,"ForecastWindChill":null,"ForecastWindSpeed":null,"AwayTeamMoneyLine":null,"HomeTeamMoneyLine":null,"StadiumDetails":{"StadiumID":3,"Name":"MetLife Stadium","City":"East Rutherford","State":"NJ","Country":"USA","Capacity":82500,"PlayingSurface":"Artificial","GeoLat":40.813611,"GeoLong":-74.074444}},{"GameKey":"201611022","SeasonType":1,"Season":2016,"Week":10,"Date":"2016-11-13T13:00:00","AwayTeam":"DEN","HomeTeam":"NO","Channel":null,"PointSpread":null,"OverUnder":null,"StadiumID":27,"Canceled":false,"GeoLat":null,"GeoLong":null,"ForecastTempLow":null,"ForecastTempHigh":null,"ForecastDescription":null,"ForecastWindChill":null,"ForecastWindSpeed":null,"AwayTeamMoneyLine":null,"HomeTeamMoneyLine":null,"StadiumDetails":{"StadiumID":27,"Name":"Mercedes-Benz Superdome","City":"New Orleans","State":"LA","Country":"USA","Capacity":73208,"PlayingSurface":"Dome","GeoLat":29.950931,"GeoLong":-90.081364}},{"GameKey":"201611015","SeasonType":1,"Season":2016,"Week":10,"Date":"2016-11-13T13:00:00","AwayTeam":"HOU","HomeTeam":"JAX","Channel":null,"PointSpread":null,"OverUnder":null,"StadiumID":10,"Canceled":false,"GeoLat":null,"GeoLong":null,"ForecastTempLow":null,"ForecastTempHigh":null,"ForecastDescription":null,"ForecastWindChill":null,"ForecastWindSpeed":null,"AwayTeamMoneyLine":null,"HomeTeamMoneyLine":null,"StadiumDetails":{"StadiumID":10,"Name":"EverBank Field","City":"Jacksonville","State":"FL","Country":"USA","Capacity":67246,"PlayingSurface":"Artificial","GeoLat":30.323813,"GeoLong":-81.637199}},{"GameKey":"201611029","SeasonType":1,"Season":2016,"Week":10,"Date":"2016-11-13T16:05:00","AwayTeam":"MIA","HomeTeam":"SD","Channel":null,"PointSpread":null,"OverUnder":null,"StadiumID":14,"Canceled":false,"GeoLat":null,"GeoLong":null,"ForecastTempLow":null,"ForecastTempHigh":null,"ForecastDescription":null,"ForecastWindChill":null,"ForecastWindSpeed":null,"AwayTeamMoneyLine":null,"HomeTeamMoneyLine":null,"StadiumDetails":{"StadiumID":14,"Name":"Qualcomm Stadium","City":"San Diego","State":"CA","Country":"USA","Capacity":70561,"PlayingSurface":"Grass","GeoLat":32.783188,"GeoLong":-117.119439}},{"GameKey":"201611028","SeasonType":1,"Season":2016,"Week":10,"Date":"2016-11-13T16:25:00","AwayTeam":"DAL","HomeTeam":"PIT","Channel":null,"PointSpread":null,"OverUnder":null,"StadiumID":8,"Canceled":false,"GeoLat":null,"GeoLong":null,"ForecastTempLow":null,"ForecastTempHigh":null,"ForecastDescription":null,"ForecastWindChill":null,"ForecastWindSpeed":null,"AwayTeamMoneyLine":null,"HomeTeamMoneyLine":null,"StadiumDetails":{"StadiumID":8,"Name":"Heinz Field","City":"Pittsburgh","State":"PA","Country":"USA","Capacity":65050,"PlayingSurface":"Grass","GeoLat":40.446751,"GeoLong":-80.015707}},{"GameKey":"201611001","SeasonType":1,"Season":2016,"Week":10,"Date":"2016-11-13T16:25:00","AwayTeam":"SF","HomeTeam":"ARI","Channel":null,"PointSpread":null,"OverUnder":null,"StadiumID":29,"Canceled":false,"GeoLat":null,"GeoLong":null,"ForecastTempLow":null,"ForecastTempHigh":null,"ForecastDescription":null,"ForecastWindChill":null,"ForecastWindSpeed":null,"AwayTeamMoneyLine":null,"HomeTeamMoneyLine":null,"StadiumDetails":{"StadiumID":29,"Name":"University of Phoenix Stadium","City":"Glendale","State":"AZ","Country":"USA","Capacity":63400,"PlayingSurface":"Dome","GeoLat":33.527558,"GeoLong":-112.263036}},{"GameKey":"201611021","SeasonType":1,"Season":2016,"Week":10,"Date":"2016-11-13T20:30:00","AwayTeam":"SEA","HomeTeam":"NE","Channel":null,"PointSpread":null,"OverUnder":null,"StadiumID":4,"Canceled":false,"GeoLat":null,"GeoLong":null,"ForecastTempLow":null,"ForecastTempHigh":null,"ForecastDescription":null,"ForecastWindChill":null,"ForecastWindSpeed":null,"AwayTeamMoneyLine":null,"HomeTeamMoneyLine":null,"StadiumDetails":{"StadiumID":4,"Name":"Gillette Stadium","City":"Foxborough","State":"MA","Country":"USA","Capacity":68756,"PlayingSurface":"Grass","GeoLat":42.090866,"GeoLong":-71.264244}},{"GameKey":"201611023","SeasonType":1,"Season":2016,"Week":10,"Date":"2016-11-14T20:30:00","AwayTeam":"CIN","HomeTeam":"NYG","Channel":null,"PointSpread":null,"OverUnder":null,"StadiumID":3,"Canceled":false,"GeoLat":null,"GeoLong":null,"ForecastTempLow":null,"ForecastTempHigh":null,"ForecastDescription":null,"ForecastWindChill":null,"ForecastWindSpeed":null,"AwayTeamMoneyLine":null,"HomeTeamMoneyLine":null,"StadiumDetails":{"StadiumID":3,"Name":"MetLife Stadium","City":"East Rutherford","State":"NJ","Country":"USA","Capacity":82500,"PlayingSurface":"Artificial","GeoLat":40.813611,"GeoLong":-74.074444}},